{"datasetId":"transit-network-ktmb","version":"2026-07-17","updatedAt":"2026-07-17T05:28:25.636Z","publishedAt":"2026-07-17T05:28:25.636Z","rowCount":192,"source":{"provider":"Agensi Pengangkutan Awam Darat (APAD) / data.gov.my","portal":"data.gov.my","url":"https://developer.data.gov.my/realtime-api/gtfs-static","licence":"CC BY 4.0","licenceUrl":"https://creativecommons.org/licenses/by/4.0/"},"data":{"network":"ktmb","mode":"rail","label":"KTM trains","routes":[{"id":"KC05_KB18","shortName":"Seremban Line","longName":"KTM Batu Caves - Pulau Sebang/Tampin","color":"#3c5a9f","category":"KTM"},{"id":"KA15_KD19","shortName":"Port Klang Line","longName":"KTM Tanjung Malim - Pelabuhan Klang","color":"#dc2420","category":"KTM"},{"id":"100_47300","shortName":"Padang Besar Line","longName":"KTM Butterworth - Padang Besar","color":"#018000","category":"KTM"},{"id":"100_9000","shortName":"Ipoh Line","longName":"KTM Butterworth - Ipoh","color":"#1964b7","category":"KTM"},{"id":"SH","shortName":"SH","longName":"Intercity Shuttle Tumpat - Gemas","color":null,"category":"KTM"},{"id":"ERT","shortName":"ERT","longName":"Intercity Ekspres Rakyat Timuran Tumpat - JB Sentral","color":null,"category":"KTM"},{"id":"ES","shortName":"ES","longName":"Intercity Ekspres Selatan Gemas - JB Sentral","color":null,"category":"KTM"},{"id":"ST","shortName":"ST","longName":"Intercity Shuttle Tebrau JB Sentral - Woodlands","color":null,"category":"KTM"},{"id":"ETS","shortName":"ETS","longName":"Electric Train Service Padang Besar - Gemas","color":null,"category":"KTM"}],"stops":[{"id":"50500","name":"Taman Wahyu","lat":3.21451,"lon":101.67218,"routeIds":["KC05_KB18"]},{"id":"50600","name":"Batu Caves","lat":3.2378,"lon":101.68122,"routeIds":["KC05_KB18"]},{"id":"52800","name":"Angkasapuri","lat":3.11321,"lon":101.67337,"routeIds":["KA15_KD19"]},{"id":"52900","name":"Pantai Dalam","lat":3.09561,"lon":101.66993,"routeIds":["KA15_KD19"]},{"id":"53000","name":"Petaling","lat":3.08649,"lon":101.66434,"routeIds":["KA15_KD19"]},{"id":"47300","name":"Padang Besar","lat":6.66221,"lon":100.31951,"routeIds":["100_47300","ETS"]},{"id":"54500","name":"Bukit Badak","lat":3.03615,"lon":101.47018,"routeIds":["KA15_KD19"]},{"id":"54700","name":"Klang","lat":3.04308,"lon":101.44954,"routeIds":["KA15_KD19"]},{"id":"50400","name":"Kampung Batu","lat":3.20489,"lon":101.67558,"routeIds":["KC05_KB18"]},{"id":"53600","name":"Setia Jaya","lat":3.08337,"lon":101.61143,"routeIds":["KA15_KD19"]},{"id":"53700","name":"Subang Jaya","lat":3.08455,"lon":101.58737,"routeIds":["KA15_KD19"]},{"id":"400","name":"Bukit Tengah","lat":5.3646,"lon":100.42173,"routeIds":["100_47300","100_9000","ETS"]},{"id":"600","name":"Bukit Mertajam","lat":5.366,"lon":100.44799,"routeIds":["100_47300","100_9000","ETS"]},{"id":"5700","name":"Padang Rengas","lat":4.77793,"lon":100.85742,"routeIds":["100_9000","ETS"]},{"id":"6300","name":"Kuala Kangsar","lat":4.77652,"lon":100.9326,"routeIds":["100_9000","ETS"]},{"id":"7300","name":"Sungai Siput","lat":4.81876,"lon":101.07126,"routeIds":["100_9000","ETS"]},{"id":"8600","name":"Tasek","lat":4.65289,"lon":101.12028,"routeIds":["100_9000","ETS"]},{"id":"9000","name":"Ipoh","lat":4.59753,"lon":101.07333,"routeIds":["100_9000","ETS"]},{"id":"1700","name":"Nibong Tebal","lat":5.16942,"lon":100.47965,"routeIds":["100_9000","ETS"]},{"id":"1900","name":"Parit Buntar","lat":5.13057,"lon":100.48658,"routeIds":["100_9000","ETS"]},{"id":"2600","name":"Bagan Serai","lat":5.02807,"lon":100.5272,"routeIds":["100_9000","ETS"]},{"id":"1000","name":"Simpang Ampat","lat":5.28599,"lon":100.48097,"routeIds":["100_9000","ETS"]},{"id":"4500","name":"Kamunting","lat":4.89589,"lon":100.7191,"routeIds":["100_9000","ETS"]},{"id":"4700","name":"Taiping","lat":4.85206,"lon":100.73149,"routeIds":["100_9000","ETS"]},{"id":"43100","name":"Kobah","lat":5.97233,"lon":100.44068,"routeIds":["100_47300","ETS"]},{"id":"44000","name":"Alor Star","lat":6.11314,"lon":100.36929,"routeIds":["100_47300","ETS"]},{"id":"43500","name":"Tokai","lat":6.02932,"lon":100.40868,"routeIds":["100_47300","ETS"]},{"id":"45800","name":"Arau","lat":6.43195,"lon":100.269,"routeIds":["100_47300","ETS"]},{"id":"46300","name":"Bukit Katri","lat":6.52375,"lon":100.25713,"routeIds":["100_47300","ETS"]},{"id":"50000","name":"Sentul","lat":3.18358,"lon":101.6888,"routeIds":["KC05_KB18"]},{"id":"37400","name":"Holiday Plaza","lat":1.48858,"lon":103.75983,"routeIds":["ERT"]},{"id":"35500","name":"Sedenak","lat":1.71225,"lon":103.52249,"routeIds":["ERT"]},{"id":"37600","name":"Woodlands","lat":1.44372,"lon":103.76955,"routeIds":["ST"]},{"id":"40500","name":"Tasek Gelugor","lat":5.48218,"lon":100.49796,"routeIds":["100_47300","ETS"]},{"id":"41400","name":"Sungai Petani","lat":5.64298,"lon":100.48976,"routeIds":["100_47300","ETS"]},{"id":"37500","name":"Jb Sentral","lat":1.46315,"lon":103.76445,"routeIds":["ERT","ST"]},{"id":"42400","name":"Gurun","lat":5.82429,"lon":100.47745,"routeIds":["100_47300","ETS"]},{"id":"68700","name":"Jerantut","lat":3.93727,"lon":102.35795,"routeIds":["ERT","SH"]},{"id":"69100","name":"Padang Piol","lat":4.0011,"lon":102.4022,"routeIds":["ERT","SH"]},{"id":"69400","name":"Tembeling","lat":4.3373,"lon":102.3006,"routeIds":["ERT","SH"]},{"id":"69600","name":"Mela","lat":4.10555,"lon":102.3154,"routeIds":["ERT","SH"]},{"id":"70000","name":"Sungai Lik","lat":4.0889,"lon":102.2087,"routeIds":["ERT","SH"]},{"id":"70200","name":"Krambit","lat":4.11732,"lon":102.19952,"routeIds":["ERT","SH"]},{"id":"63700","name":"Kemayan","lat":3.13583,"lon":102.37057,"routeIds":["ERT","SH"]},{"id":"64100","name":"Mengkuang","lat":5.33058,"lon":102.20314,"routeIds":["ERT","SH"]},{"id":"64400","name":"Triang","lat":3.24645,"lon":102.41132,"routeIds":["ERT","SH"]},{"id":"71300","name":"Kuala Lipis","lat":4.18663,"lon":102.05379,"routeIds":["ERT","SH"]},{"id":"8000","name":"Chemor","lat":4.81887,"lon":101.0713,"routeIds":["100_9000","ETS"]},{"id":"9400","name":"Lahat","lat":4.54219,"lon":101.05266,"routeIds":["ETS"]},{"id":"9700","name":"Batu Gajah","lat":4.45989,"lon":101.0493,"routeIds":["ETS"]},{"id":"10200","name":"Kota Bharu (Pk)","lat":4.4026,"lon":101.07912,"routeIds":["ETS"]},{"id":"10900","name":"Kampar","lat":4.30279,"lon":101.15351,"routeIds":["ETS"]},{"id":"12900","name":"Sungkai","lat":4.00622,"lon":101.30151,"routeIds":["ETS"]},{"id":"14100","name":"Slim River","lat":3.82713,"lon":101.40216,"routeIds":["ETS"]},{"id":"14600","name":"Behrang","lat":3.74548,"lon":101.45001,"routeIds":["ETS"]},{"id":"15200","name":"Tanjung Malim","lat":3.68514,"lon":101.51817,"routeIds":["ETS","KA15_KD19"]},{"id":"17300","name":"Serendah","lat":3.37617,"lon":101.61453,"routeIds":["ETS","KA15_KD19"]},{"id":"17800","name":"Rawang","lat":3.31896,"lon":101.57501,"routeIds":["ETS","KA15_KD19"]},{"id":"11600","name":"Tapah Road","lat":4.17386,"lon":101.18933,"routeIds":["ETS"]},{"id":"16100","name":"Kuala Kubu Baru","lat":3.55322,"lon":101.63959,"routeIds":["ETS","KA15_KD19"]},{"id":"18500","name":"Sungai Buluh","lat":3.20636,"lon":101.58013,"routeIds":["ETS","KA15_KD19"]},{"id":"18600","name":"Kepong","lat":3.203,"lon":101.63738,"routeIds":["ETS","KA15_KD19"]},{"id":"18700","name":"Segambut","lat":3.18651,"lon":101.66403,"routeIds":["ETS","KA15_KD19"]},{"id":"18800","name":"Putra","lat":3.1654,"lon":101.6911,"routeIds":["ETS","KA15_KD19","KC05_KB18"]},{"id":"18900","name":"Bank Negara","lat":3.15511,"lon":101.69312,"routeIds":["ETS","KA15_KD19","KC05_KB18"]},{"id":"19000","name":"Kuala Lumpur","lat":3.13944,"lon":101.69333,"routeIds":["ETS","KA15_KD19","KC05_KB18"]},{"id":"15400","name":"Kalumpang","lat":3.5566,"lon":101.5612,"routeIds":["ETS","KA15_KD19"]},{"id":"19100","name":"KL Sentral","lat":3.13417,"lon":101.68611,"routeIds":["ETS","KA15_KD19","KC05_KB18"]},{"id":"19300","name":"Seputih","lat":3.11361,"lon":101.68147,"routeIds":["KC05_KB18"]},{"id":"19400","name":"Salak Selatan","lat":3.09841,"lon":101.70506,"routeIds":["KC05_KB18"]},{"id":"19600","name":"Bandar Tasek (S)","lat":3.07623,"lon":101.71112,"routeIds":["KC05_KB18"]},{"id":"19900","name":"Serdang","lat":3.0234,"lon":101.71606,"routeIds":["KC05_KB18"]},{"id":"20400","name":"Kajang","lat":2.98322,"lon":101.79067,"routeIds":["KC05_KB18"]},{"id":"20500","name":"Ukm","lat":2.93978,"lon":101.78762,"routeIds":["KC05_KB18"]},{"id":"20900","name":"Bangi","lat":2.90447,"lon":101.78594,"routeIds":["KC05_KB18"]},{"id":"21300","name":"Batang Benar","lat":2.8299,"lon":101.82666,"routeIds":["KC05_KB18"]},{"id":"18100","name":"Kuang","lat":3.25827,"lon":101.55479,"routeIds":["ETS","KA15_KD19"]},{"id":"22400","name":"Tiroi","lat":2.74146,"lon":101.87191,"routeIds":["KC05_KB18"]},{"id":"22700","name":"Seremban","lat":2.71917,"lon":101.94079,"routeIds":["KC05_KB18"]},{"id":"23900","name":"Rembau","lat":2.59306,"lon":102.09465,"routeIds":["KC05_KB18"]},{"id":"25100","name":"Pulau Sebang (Tampin)","lat":2.46396,"lon":102.22631,"routeIds":["KC05_KB18"]},{"id":"21500","name":"Nilai","lat":2.80236,"lon":101.7993,"routeIds":["KC05_KB18"]},{"id":"22000","name":"Labu","lat":2.7545,"lon":101.82666,"routeIds":["KC05_KB18"]},{"id":"27800","name":"Gemas","lat":2.57961,"lon":102.61168,"routeIds":["ERT","SH"]},{"id":"28300","name":"Batu Anam","lat":2.58044,"lon":102.70227,"routeIds":["ERT"]},{"id":"29100","name":"Segamat","lat":2.50707,"lon":102.81396,"routeIds":["ERT"]},{"id":"29500","name":"Genuang","lat":2.48837,"lon":102.88443,"routeIds":["ERT"]},{"id":"29900","name":"Tenang","lat":2.465,"lon":102.95694,"routeIds":["ERT"]},{"id":"30500","name":"Labis","lat":2.38318,"lon":103.01959,"routeIds":["ERT"]},{"id":"31300","name":"Bekok","lat":2.29571,"lon":103.12973,"routeIds":["ERT"]},{"id":"32100","name":"Paloh","lat":2.18693,"lon":103.19399,"routeIds":["ERT"]},{"id":"33200","name":"Kluang","lat":2.03367,"lon":103.31773,"routeIds":["ERT"]},{"id":"33600","name":"Mengkibol","lat":1.97592,"lon":103.33434,"routeIds":["ERT"]},{"id":"34200","name":"Rengam","lat":1.88485,"lon":103.40321,"routeIds":["ERT"]},{"id":"34800","name":"Layang-Layang","lat":1.81383,"lon":103.47579,"routeIds":["ERT"]},{"id":"32400","name":"Chamek","lat":2.14304,"lon":103.23858,"routeIds":["ERT"]},{"id":"36000","name":"Kulai","lat":1.66313,"lon":103.60049,"routeIds":["ERT"]},{"id":"36600","name":"Senai","lat":1.66313,"lon":103.60049,"routeIds":["ERT"]},{"id":"36900","name":"Kempas Bahru","lat":1.53574,"lon":103.7218,"routeIds":["ERT"]},{"id":"76600","name":"Pan Malayan","lat":4.91299,"lon":101.977,"routeIds":["ERT","SH"]},{"id":"76800","name":"Sungai Koyan","lat":4.96302,"lon":102.01064,"routeIds":["ERT","SH"]},{"id":"77000","name":"Kampung Sg.Sirian","lat":5.02507,"lon":102.03904,"routeIds":["ERT","SH"]},{"id":"72600","name":"Dura","lat":4.45942,"lon":101.9402,"routeIds":["ERT","SH"]},{"id":"72700","name":"Aur Gading","lat":4.44072,"lon":101.95489,"routeIds":["ERT","SH"]},{"id":"73100","name":"Chegar Perah","lat":4.49059,"lon":101.94379,"routeIds":["ERT","SH"]},{"id":"78400","name":"Sri Bintang","lat":5.16012,"lon":102.08597,"routeIds":["ERT","SH"]},{"id":"53800","name":"Batu Tiga","lat":3.07609,"lon":101.55981,"routeIds":["KA15_KD19"]},{"id":"54200","name":"Shah Alam","lat":3.05639,"lon":101.5253,"routeIds":["KA15_KD19"]},{"id":"54400","name":"Padang Jawa","lat":3.05253,"lon":101.49274,"routeIds":["KA15_KD19"]},{"id":"55100","name":"Jalan Kastam","lat":3.01313,"lon":101.4026,"routeIds":["KA15_KD19"]},{"id":"55200","name":"Pel. Klang (S)","lat":2.99932,"lon":101.39179,"routeIds":["KA15_KD19"]},{"id":"53100","name":"Jalan Templer","lat":3.08401,"lon":101.6564,"routeIds":["KA15_KD19"]},{"id":"53400","name":"Kg.Datuk Harun","lat":3.08483,"lon":101.63234,"routeIds":["KA15_KD19"]},{"id":"53500","name":"Seri Setia","lat":3.08337,"lon":101.61143,"routeIds":["KA15_KD19"]},{"id":"54800","name":"Teluk Pulai","lat":3.04089,"lon":101.43215,"routeIds":["KA15_KD19"]},{"id":"54900","name":"Teluk Gadong","lat":3.03393,"lon":101.42495,"routeIds":["KA15_KD19"]},{"id":"55000","name":"Kampung Raja Uda","lat":3.02025,"lon":101.41023,"routeIds":["KA15_KD19"]},{"id":"62500","name":"Serting","lat":2.81036,"lon":102.40497,"routeIds":["ERT","SH"]},{"id":"85500","name":"Bunut Susu","lat":6.09638,"lon":102.17623,"routeIds":["ERT","SH"]},{"id":"100","name":"Butterworth","lat":5.39334,"lon":100.3662,"routeIds":["100_47300","100_9000","ETS"]},{"id":"16300","name":"Rasa","lat":3.50059,"lon":101.63411,"routeIds":["ETS","KA15_KD19"]},{"id":"16500","name":"Batang Kali","lat":3.46838,"lon":101.63776,"routeIds":["ETS","KA15_KD19"]},{"id":"19205","name":"Midvalley","lat":3.11921,"lon":101.67887,"routeIds":["KC05_KB18"]},{"id":"23100","name":"Sungai Gadut","lat":2.6609,"lon":101.99616,"routeIds":["KC05_KB18"]},{"id":"45600","name":"Kodiang","lat":6.37053,"lon":100.3023,"routeIds":["100_47300","ETS"]},{"id":"44400","name":"Anak Bukit","lat":6.1834,"lon":100.37487,"routeIds":["100_47300","ETS"]},{"id":"78500","name":"Sri Mahligai","lat":5.31332,"lon":101.77286,"routeIds":["ERT","SH"]},{"id":"78700","name":"Sri Jaya","lat":5.30785,"lon":102.00906,"routeIds":["ERT","SH"]},{"id":"78900","name":"Kemubu","lat":5.35271,"lon":102.31175,"routeIds":["ERT","SH"]},{"id":"79300","name":"Dabong","lat":5.37707,"lon":102.01018,"routeIds":["ERT","SH"]},{"id":"79800","name":"Kuala Gris","lat":5.49379,"lon":102.08047,"routeIds":["ERT","SH"]},{"id":"80000","name":"Bukit Abu","lat":5.37267,"lon":102.08513,"routeIds":["ERT","SH"]},{"id":"77200","name":"Sungai Sirian","lat":5.0337,"lon":102.04945,"routeIds":["ERT","SH"]},{"id":"81700","name":"Pahi","lat":5.54847,"lon":102.23977,"routeIds":["ERT","SH"]},{"id":"60800","name":"Londah","lat":2.81036,"lon":102.40497,"routeIds":["ERT","SH"]},{"id":"61000","name":"Rompin","lat":2.81036,"lon":102.40497,"routeIds":["ERT","SH"]},{"id":"61800","name":"Bahau","lat":2.8113,"lon":102.4036,"routeIds":["ERT","SH"]},{"id":"64700","name":"Mentri","lat":3.24645,"lon":102.41132,"routeIds":["ERT","SH"]},{"id":"64900","name":"Mengkarak","lat":3.33114,"lon":102.41878,"routeIds":["ERT","SH"]},{"id":"66100","name":"Mentakab","lat":3.4839,"lon":102.34304,"routeIds":["ERT","SH"]},{"id":"66600","name":"Kerdau","lat":3.57751,"lon":102.3697,"routeIds":["ERT","SH"]},{"id":"67100","name":"Sungai Dalam","lat":3.71045,"lon":102.36626,"routeIds":["ERT","SH"]},{"id":"67400","name":"Kuala Krau","lat":3.71045,"lon":102.36626,"routeIds":["ERT","SH"]},{"id":"18400","name":"Kepong Sentral","lat":3.20865,"lon":101.62849,"routeIds":["ETS","KA15_KD19"]},{"id":"37405","name":"Danga City Mall","lat":1.4753,"lon":103.7548,"routeIds":["ERT"]},{"id":"22900","name":"Senawang","lat":2.69014,"lon":101.97234,"routeIds":["KC05_KB18"]},{"id":"71800","name":"Pdg.Tungku","lat":4.23397,"lon":101.98883,"routeIds":["ERT","SH"]},{"id":"72000","name":"Kg Telang","lat":4.18663,"lon":102.05379,"routeIds":["ERT","SH"]},{"id":"72200","name":"B.Betong","lat":4.39984,"lon":101.92368,"routeIds":["ERT","SH"]},{"id":"72400","name":"Kg.Berkam","lat":4.20116,"lon":102.05187,"routeIds":["ERT","SH"]},{"id":"67900","name":"Jenderak","lat":3.80734,"lon":102.35917,"routeIds":["ERT","SH"]},{"id":"68200","name":"Jeransong","lat":3.93727,"lon":102.35795,"routeIds":["ERT","SH"]},{"id":"73500","name":"Sungai Temau","lat":4.49778,"lon":101.9474,"routeIds":["ERT","SH"]},{"id":"74000","name":"Kubang Rusa","lat":4.69314,"lon":102.00328,"routeIds":["ERT","SH"]},{"id":"74500","name":"Teluk Gunong","lat":4.63526,"lon":101.99271,"routeIds":["ERT","SH"]},{"id":"74800","name":"Merapoh","lat":4.69314,"lon":102.00328,"routeIds":["ERT","SH"]},{"id":"75000","name":"Mentara Baru","lat":4.78934,"lon":102.01179,"routeIds":["ERT","SH"]},{"id":"75300","name":"Lapan Tupai","lat":4.87894,"lon":101.96663,"routeIds":["ERT","SH"]},{"id":"76000","name":"Gua Musang","lat":4.87894,"lon":101.96663,"routeIds":["ERT","SH"]},{"id":"82100","name":"Kuala Krai","lat":5.52988,"lon":102.20281,"routeIds":["ERT","SH"]},{"id":"77400","name":"Limau Kasturi","lat":5.08019,"lon":102.06936,"routeIds":["ERT","SH"]},{"id":"77800","name":"Bertam Baru","lat":5.1429,"lon":102.0456,"routeIds":["ERT","SH"]},{"id":"77900","name":"Bertam","lat":5.148,"lon":102.05066,"routeIds":["ERT","SH"]},{"id":"78100","name":"Jerek Baru","lat":5.1739,"lon":102.00993,"routeIds":["ERT","SH"]},{"id":"78300","name":"Sungai Tasin","lat":5.19518,"lon":102.01353,"routeIds":["ERT","SH"]},{"id":"84200","name":"Bukit Panau","lat":5.89126,"lon":102.15727,"routeIds":["ERT","SH"]},{"id":"84400","name":"Sungai Keladi","lat":5.9052,"lon":102.15896,"routeIds":["ERT","SH"]},{"id":"84600","name":"To' Uban","lat":5.98236,"lon":102.11687,"routeIds":["ERT","SH"]},{"id":"84800","name":"Cicha Tinggi","lat":6.0225,"lon":102.14004,"routeIds":["ERT","SH"]},{"id":"85100","name":"Pasir Mas","lat":6.04271,"lon":102.14257,"routeIds":["ERT","SH"]},{"id":"80300","name":"Kg Baru Bukit Abu","lat":5.32983,"lon":102.1214,"routeIds":["ERT","SH"]},{"id":"80500","name":"Ulu Temiang","lat":5.30765,"lon":102.15629,"routeIds":["ERT","SH"]},{"id":"80700","name":"Kg.Baru Sg.Mengkuang","lat":5.38989,"lon":102.14639,"routeIds":["ERT","SH"]},{"id":"81200","name":"Manek Urai","lat":5.39103,"lon":102.23263,"routeIds":["ERT","SH"]},{"id":"85700","name":"Wakaf Bahru","lat":6.11831,"lon":102.20052,"routeIds":["ERT","SH"]},{"id":"86000","name":"Kampung Kok Pasir","lat":6.16321,"lon":102.20769,"routeIds":["ERT","SH"]},{"id":"86300","name":"Tumpat","lat":6.19899,"lon":102.16762,"routeIds":["ERT","SH"]},{"id":"82400","name":"Sungai Nal","lat":5.58888,"lon":102.18009,"routeIds":["ERT","SH"]},{"id":"83100","name":"Temangan","lat":5.70241,"lon":102.15165,"routeIds":["ERT","SH"]},{"id":"83700","name":"Tanah Merah","lat":5.80608,"lon":102.14673,"routeIds":["ERT","SH"]},{"id":"52700","name":"Abdullah Hukum","lat":3.11869,"lon":101.67293,"routeIds":["KA15_KD19"]},{"id":"50300","name":"Batu Kentonmen","lat":3.19849,"lon":101.68114,"routeIds":["KC05_KB18"]},{"id":"20402","name":"Kajang 2","lat":2.96264,"lon":101.79207,"routeIds":["KC05_KB18"]}],"shapes":[{"routeId":"ERT","direction":1,"coords":[[103.76445,1.46315],[103.7548,1.4753],[103.75983,1.48858],[103.7218,1.53574],[103.60049,1.66313],[103.52249,1.71225],[103.47579,1.81383],[103.40321,1.88485],[103.33434,1.97592],[103.31773,2.03367],[103.23858,2.14304],[103.19399,2.18693],[103.12973,2.29571],[103.01959,2.38318],[102.95694,2.465],[102.88443,2.48837],[102.81396,2.50707],[102.70227,2.58044],[102.61168,2.57961],[102.40497,2.81036],[102.4036,2.8113],[102.40497,2.81036],[102.37057,3.13583],[102.20314,5.33058],[102.41132,3.24645],[102.41878,3.33114],[102.34304,3.4839],[102.3697,3.57751],[102.36626,3.71045],[102.35917,3.80734],[102.35795,3.93727],[102.4022,4.0011],[102.3006,4.3373],[102.3154,4.10555],[102.2087,4.0889],[102.19952,4.11732],[102.05379,4.18663],[101.98883,4.23397],[102.05379,4.18663],[101.92368,4.39984],[102.05187,4.20116],[101.9402,4.45942],[101.95489,4.44072],[101.94379,4.49059],[101.9474,4.49778],[102.00328,4.69314],[101.99271,4.63526],[102.00328,4.69314],[102.01179,4.78934],[101.96663,4.87894],[101.977,4.91299],[102.01064,4.96302],[102.03904,5.02507],[102.04945,5.0337],[102.06936,5.08019],[102.0456,5.1429],[102.05066,5.148],[102.00993,5.1739],[102.01353,5.19518],[102.08597,5.16012],[101.77286,5.31332],[102.00906,5.30785],[102.31175,5.35271],[102.01018,5.37707],[102.08047,5.49379],[102.08513,5.37267],[102.1214,5.32983],[102.15629,5.30765],[102.14639,5.38989],[102.23263,5.39103],[102.23977,5.54847],[102.20281,5.52988],[102.18009,5.58888],[102.15165,5.70241],[102.14673,5.80608],[102.15727,5.89126],[102.15896,5.9052],[102.11687,5.98236],[102.14004,6.0225],[102.14257,6.04271],[102.17623,6.09638],[102.20052,6.11831],[102.20769,6.16321],[102.16762,6.19899]]},{"routeId":"ERT","direction":0,"coords":[[102.16762,6.19899],[102.20769,6.16321],[102.20052,6.11831],[102.17623,6.09638],[102.14257,6.04271],[102.14004,6.0225],[102.11687,5.98236],[102.15896,5.9052],[102.15727,5.89126],[102.14673,5.80608],[102.15165,5.70241],[102.18009,5.58888],[102.20281,5.52988],[102.23977,5.54847],[102.23263,5.39103],[102.14639,5.38989],[102.15629,5.30765],[102.1214,5.32983],[102.08513,5.37267],[102.08047,5.49379],[102.01018,5.37707],[102.31175,5.35271],[102.00906,5.30785],[101.77286,5.31332],[102.08597,5.16012],[102.01353,5.19518],[102.00993,5.1739],[102.05066,5.148],[102.0456,5.1429],[102.06936,5.08019],[102.04945,5.0337],[102.03904,5.02507],[102.01064,4.96302],[101.977,4.91299],[101.96663,4.87894],[102.01179,4.78934],[102.00328,4.69314],[101.99271,4.63526],[102.00328,4.69314],[101.9474,4.49778],[101.94379,4.49059],[101.95489,4.44072],[101.9402,4.45942],[102.05187,4.20116],[101.92368,4.39984],[102.05379,4.18663],[101.98883,4.23397],[102.05379,4.18663],[102.19952,4.11732],[102.2087,4.0889],[102.3154,4.10555],[102.3006,4.3373],[102.4022,4.0011],[102.35795,3.93727],[102.35917,3.80734],[102.36626,3.71045],[102.3697,3.57751],[102.34304,3.4839],[102.41878,3.33114],[102.41132,3.24645],[102.20314,5.33058],[102.37057,3.13583],[102.40497,2.81036],[102.4036,2.8113],[102.40497,2.81036],[102.61168,2.57961],[102.70227,2.58044],[102.81396,2.50707],[102.88443,2.48837],[102.95694,2.465],[103.01959,2.38318],[103.12973,2.29571],[103.19399,2.18693],[103.23858,2.14304],[103.31773,2.03367],[103.33434,1.97592],[103.40321,1.88485],[103.47579,1.81383],[103.52249,1.71225],[103.60049,1.66313],[103.7218,1.53574],[103.75983,1.48858],[103.7548,1.4753],[103.76445,1.46315]]},{"routeId":"100_9000","direction":1,"coords":[[101.07333,4.59753],[101.12028,4.65289],[101.0713,4.81887],[101.07126,4.81876],[100.9326,4.77652],[100.85742,4.77793],[100.73149,4.85206],[100.7191,4.89589],[100.5272,5.02807],[100.48658,5.13057],[100.47965,5.16942],[100.48097,5.28599],[100.44799,5.366],[100.42173,5.3646],[100.3662,5.39334]]},{"routeId":"100_9000","direction":0,"coords":[[100.3662,5.39334],[100.42173,5.3646],[100.44799,5.366],[100.48097,5.28599],[100.47965,5.16942],[100.48658,5.13057],[100.5272,5.02807],[100.7191,4.89589],[100.73149,4.85206],[100.85742,4.77793],[100.9326,4.77652],[101.07126,4.81876],[101.0713,4.81887],[101.12028,4.65289],[101.07333,4.59753]]},{"routeId":"100_47300","direction":0,"coords":[[100.3662,5.39334],[100.42173,5.3646],[100.44799,5.366],[100.49796,5.48218],[100.48976,5.64298],[100.47745,5.82429],[100.44068,5.97233],[100.40868,6.02932],[100.36929,6.11314],[100.37487,6.1834],[100.3023,6.37053],[100.269,6.43195],[100.25713,6.52375],[100.31951,6.66221]]},{"routeId":"100_47300","direction":1,"coords":[[100.31951,6.66221],[100.25713,6.52375],[100.269,6.43195],[100.3023,6.37053],[100.37487,6.1834],[100.36929,6.11314],[100.40868,6.02932],[100.44068,5.97233],[100.47745,5.82429],[100.48976,5.64298],[100.49796,5.48218],[100.44799,5.366],[100.42173,5.3646],[100.3662,5.39334]]},{"routeId":"SH","direction":1,"coords":[[102.05379,4.18663],[101.98883,4.23397],[102.05379,4.18663],[101.92368,4.39984],[102.05187,4.20116],[101.9402,4.45942],[101.95489,4.44072],[101.94379,4.49059],[101.9474,4.49778],[102.00328,4.69314],[101.99271,4.63526],[102.00328,4.69314],[102.01179,4.78934],[101.96663,4.87894],[101.977,4.91299],[102.01064,4.96302],[102.03904,5.02507],[102.04945,5.0337],[102.06936,5.08019],[102.0456,5.1429],[102.05066,5.148],[102.00993,5.1739],[102.01353,5.19518],[102.08597,5.16012],[101.77286,5.31332],[102.00906,5.30785],[102.31175,5.35271],[102.01018,5.37707],[102.08047,5.49379],[102.08513,5.37267],[102.1214,5.32983],[102.15629,5.30765],[102.14639,5.38989],[102.23263,5.39103],[102.23977,5.54847],[102.20281,5.52988],[102.18009,5.58888],[102.15165,5.70241],[102.14673,5.80608],[102.15727,5.89126],[102.15896,5.9052],[102.11687,5.98236],[102.14004,6.0225],[102.14257,6.04271],[102.17623,6.09638],[102.20052,6.11831],[102.20769,6.16321],[102.16762,6.19899]]},{"routeId":"SH","direction":0,"coords":[[102.16762,6.19899],[102.20769,6.16321],[102.20052,6.11831],[102.17623,6.09638],[102.14257,6.04271],[102.14004,6.0225],[102.11687,5.98236],[102.15896,5.9052],[102.15727,5.89126],[102.14673,5.80608],[102.15165,5.70241],[102.18009,5.58888],[102.20281,5.52988],[102.23977,5.54847],[102.23263,5.39103],[102.14639,5.38989],[102.15629,5.30765],[102.1214,5.32983],[102.08513,5.37267],[102.08047,5.49379],[102.01018,5.37707],[102.31175,5.35271],[102.00906,5.30785],[101.77286,5.31332],[102.08597,5.16012],[102.01353,5.19518],[102.00993,5.1739],[102.05066,5.148],[102.0456,5.1429],[102.06936,5.08019],[102.04945,5.0337],[102.03904,5.02507],[102.01064,4.96302],[101.977,4.91299],[101.96663,4.87894],[102.01179,4.78934],[102.00328,4.69314],[101.99271,4.63526],[102.00328,4.69314],[101.9474,4.49778],[101.94379,4.49059],[101.95489,4.44072],[101.9402,4.45942],[102.05187,4.20116],[101.92368,4.39984],[102.05379,4.18663],[101.98883,4.23397],[102.05379,4.18663]]},{"routeId":"ST","direction":0,"coords":[[103.76445,1.46315],[103.76955,1.44372]]},{"routeId":"ST","direction":1,"coords":[[103.76955,1.44372],[103.76445,1.46315]]},{"routeId":"ETS","direction":1,"coords":[[101.68611,3.13417],[101.69333,3.13944],[101.69312,3.15511],[101.6911,3.1654],[101.66403,3.18651],[101.63738,3.203],[101.62849,3.20865],[101.58013,3.20636],[101.55479,3.25827],[101.57501,3.31896],[101.61453,3.37617],[101.63776,3.46838],[101.63411,3.50059],[101.63959,3.55322],[101.5612,3.5566],[101.51817,3.68514],[101.45001,3.74548],[101.40216,3.82713],[101.30151,4.00622],[101.18933,4.17386],[101.15351,4.30279],[101.07912,4.4026],[101.0493,4.45989],[101.05266,4.54219],[101.07333,4.59753],[101.12028,4.65289],[101.0713,4.81887],[101.07126,4.81876],[100.9326,4.77652],[100.85742,4.77793],[100.73149,4.85206],[100.7191,4.89589],[100.5272,5.02807],[100.48658,5.13057],[100.47965,5.16942],[100.48097,5.28599],[100.44799,5.366],[100.42173,5.3646],[100.3662,5.39334]]},{"routeId":"ETS","direction":0,"coords":[[100.31951,6.66221],[100.25713,6.52375],[100.269,6.43195],[100.3023,6.37053],[100.37487,6.1834],[100.36929,6.11314],[100.40868,6.02932],[100.44068,5.97233],[100.47745,5.82429],[100.48976,5.64298],[100.49796,5.48218],[100.48097,5.28599],[100.47965,5.16942],[100.48658,5.13057],[100.5272,5.02807],[100.7191,4.89589],[100.73149,4.85206],[100.85742,4.77793],[100.9326,4.77652],[101.07126,4.81876],[101.0713,4.81887],[101.12028,4.65289],[101.07333,4.59753],[101.05266,4.54219],[101.0493,4.45989],[101.07912,4.4026],[101.15351,4.30279],[101.18933,4.17386],[101.30151,4.00622],[101.40216,3.82713],[101.45001,3.74548],[101.51817,3.68514],[101.5612,3.5566],[101.63959,3.55322],[101.63411,3.50059],[101.63776,3.46838],[101.61453,3.37617],[101.57501,3.31896],[101.55479,3.25827],[101.58013,3.20636],[101.62849,3.20865],[101.63738,3.203],[101.66403,3.18651],[101.6911,3.1654],[101.69312,3.15511],[101.69333,3.13944],[101.68611,3.13417]]},{"routeId":"KC05_KB18","direction":1,"coords":[[102.22631,2.46396],[102.09465,2.59306],[101.99616,2.6609],[101.97234,2.69014],[101.94079,2.71917],[101.87191,2.74146],[101.82666,2.7545],[101.7993,2.80236],[101.82666,2.8299],[101.78594,2.90447],[101.78762,2.93978],[101.79207,2.96264],[101.79067,2.98322],[101.71606,3.0234],[101.71112,3.07623],[101.70506,3.09841],[101.68147,3.11361],[101.67887,3.11921],[101.68611,3.13417],[101.69333,3.13944],[101.69312,3.15511],[101.6911,3.1654],[101.6888,3.18358],[101.68114,3.19849],[101.67558,3.20489],[101.67218,3.21451],[101.68122,3.2378]]},{"routeId":"KC05_KB18","direction":0,"coords":[[101.68122,3.2378],[101.67218,3.21451],[101.67558,3.20489],[101.68114,3.19849],[101.6888,3.18358],[101.6911,3.1654],[101.69312,3.15511],[101.69333,3.13944],[101.68611,3.13417],[101.67887,3.11921],[101.68147,3.11361],[101.70506,3.09841],[101.71112,3.07623],[101.71606,3.0234],[101.79067,2.98322],[101.79207,2.96264],[101.78762,2.93978],[101.78594,2.90447],[101.82666,2.8299],[101.7993,2.80236],[101.82666,2.7545],[101.87191,2.74146],[101.94079,2.71917],[101.97234,2.69014],[101.99616,2.6609],[102.09465,2.59306],[102.22631,2.46396]]},{"routeId":"KA15_KD19","direction":1,"coords":[[101.39179,2.99932],[101.4026,3.01313],[101.41023,3.02025],[101.42495,3.03393],[101.43215,3.04089],[101.44954,3.04308],[101.47018,3.03615],[101.49274,3.05253],[101.5253,3.05639],[101.55981,3.07609],[101.58737,3.08455],[101.61143,3.08337],[101.63234,3.08483],[101.6564,3.08401],[101.66434,3.08649],[101.66993,3.09561],[101.67337,3.11321],[101.67293,3.11869],[101.68611,3.13417],[101.69333,3.13944],[101.69312,3.15511],[101.6911,3.1654],[101.66403,3.18651],[101.63738,3.203],[101.62849,3.20865],[101.58013,3.20636],[101.55479,3.25827],[101.57501,3.31896],[101.61453,3.37617],[101.63776,3.46838],[101.63411,3.50059],[101.63959,3.55322],[101.5612,3.5566],[101.51817,3.68514]]},{"routeId":"KA15_KD19","direction":0,"coords":[[101.51817,3.68514],[101.5612,3.5566],[101.63959,3.55322],[101.63411,3.50059],[101.63776,3.46838],[101.61453,3.37617],[101.57501,3.31896],[101.55479,3.25827],[101.58013,3.20636],[101.62849,3.20865],[101.63738,3.203],[101.66403,3.18651],[101.6911,3.1654],[101.69312,3.15511],[101.69333,3.13944],[101.68611,3.13417],[101.67293,3.11869],[101.67337,3.11321],[101.66993,3.09561],[101.66434,3.08649],[101.6564,3.08401],[101.63234,3.08483],[101.61143,3.08337],[101.58737,3.08455],[101.55981,3.07609],[101.5253,3.05639],[101.49274,3.05253],[101.47018,3.03615],[101.44954,3.04308],[101.43215,3.04089],[101.42495,3.03393],[101.41023,3.02025],[101.4026,3.01313],[101.39179,2.99932]]}],"tripRoutes":{"26":"ERT","27":"ERT","34":"SH","35":"SH","36":"SH","37":"SH","41":"ES","42":"ES","43":"ES","44":"ES","45":"ES","46":"ES","50":"SH","51":"SH","52":"SH","53":"SH","55":"SH","56":"SH","57":"SH","58":"SH","59":"SH","60":"SH","61":"ST","63":"ST","65":"ST","67":"ST","69":"ST","71":"ST","72":"ST","73":"ST","74":"ST","75":"ST","76":"ST","77":"ST","78":"ST","79":"ST","80":"ST","81":"ST","82":"ST","83":"ST","84":"ST","85":"ST","86":"ST","87":"ST","88":"ST","89":"ST","90":"ST","91":"ST","92":"ST","93":"ST","94":"ST","95":"ST","96":"ST","2900":"100_9000","2901":"100_9000","2902":"100_9000","2903":"100_9000","2904":"100_9000","2905":"100_9000","2906":"100_9000","2907":"100_9000","2908":"100_9000","2909":"100_9000","2910":"100_9000","2911":"100_9000","2912":"100_9000","2913":"100_9000","2914":"100_9000","2915":"100_9000","2916":"100_9000","2917":"100_9000","2918":"100_9000","2919":"100_9000","2940":"100_47300","2941":"100_47300","2943":"100_47300","2944":"100_47300","2945":"100_47300","2946":"100_47300","2947":"100_47300","2948":"100_47300","2951":"100_47300","2952":"100_47300","2955":"100_47300","2958":"100_47300","2959":"100_47300","2963":"100_47300","2964":"100_47300","2967":"100_47300","2968":"100_47300","2969":"100_47300","2970":"100_47300","2971":"100_47300","2972":"100_47300","2975":"100_47300","2976":"100_47300","2978":"100_47300","2979":"100_47300","2980":"100_47300","2981":"100_47300","2982":"100_47300","2984":"100_47300","2985":"100_47300","2986":"100_47300","2987":"100_47300","2988":"100_47300","2991":"100_47300","2994":"100_47300","2997":"100_47300","9022":"ETS","9025":"ETS","9027":"ETS","9028":"ETS","9032":"ETS","9035":"ETS","9051":"ETS","9052":"ETS","9171":"ETS","9172":"ETS","9173":"ETS","9176":"ETS","9177":"ETS","9178":"ETS","9179":"ETS","9180":"ETS","9272":"ETS","9273":"ETS","9274":"ETS","9275":"ETS","9278":"ETS","9279":"ETS","9321":"ETS","9322":"ETS","weekday_2103":"KA15_KD19","weekday_2107":"KA15_KD19","weekday_2109":"KA15_KD19","weekday_2111":"KA15_KD19","weekday_2113":"KA15_KD19","weekday_2115":"KA15_KD19","weekday_2119":"KA15_KD19","weekday_2127":"KA15_KD19","weekday_2131":"KA15_KD19","weekday_2135":"KA15_KD19","weekday_2139":"KA15_KD19","weekday_2143":"KA15_KD19","weekday_2147":"KA15_KD19","weekday_2151":"KA15_KD19","weekday_2155":"KA15_KD19","weekday_2157":"KA15_KD19","weekday_2159":"KA15_KD19","weekday_2163":"KA15_KD19","weekday_2165":"KA15_KD19","weekday_2167":"KA15_KD19","weekday_2171":"KA15_KD19","weekday_2175":"KA15_KD19","weekday_2179":"KA15_KD19","weekday_2183":"KA15_KD19","weekday_2102":"KA15_KD19","weekday_2104":"KA15_KD19","weekday_2108":"KA15_KD19","weekday_2110":"KA15_KD19","weekday_2112":"KA15_KD19","weekday_2118":"KA15_KD19","weekday_2126":"KA15_KD19","weekday_2130":"KA15_KD19","weekday_2134":"KA15_KD19","weekday_2138":"KA15_KD19","weekday_2142":"KA15_KD19","weekday_2146":"KA15_KD19","weekday_2150":"KA15_KD19","weekday_2154":"KA15_KD19","weekday_2158":"KA15_KD19","weekday_2160":"KA15_KD19","weekday_2162":"KA15_KD19","weekday_2164":"KA15_KD19","weekday_2166":"KA15_KD19","weekday_2170":"KA15_KD19","weekday_2174":"KA15_KD19","weekday_2178":"KA15_KD19","weekday_2182":"KA15_KD19","weekday_2003":"KC05_KB18","weekday_2007":"KC05_KB18","weekday_2011":"KC05_KB18","weekday_2013":"KC05_KB18","weekday_2015":"KC05_KB18","weekday_2017":"KC05_KB18","weekday_2019":"KC05_KB18","weekday_2021":"KC05_KB18","weekday_2025":"KC05_KB18","weekday_2027":"KC05_KB18","weekday_2031":"KC05_KB18","weekday_2035":"KC05_KB18","weekday_2039":"KC05_KB18","weekday_2045":"KC05_KB18","weekday_2049":"KC05_KB18","weekday_2053":"KC05_KB18","weekday_2603":"KC05_KB18","weekday_2057":"KC05_KB18","weekday_2059":"KC05_KB18","weekday_2061":"KC05_KB18","weekday_2063":"KC05_KB18","weekday_2067":"KC05_KB18","weekday_2071":"KC05_KB18","weekday_2002":"KC05_KB18","weekday_2004":"KC05_KB18","weekday_2602":"KC05_KB18","weekday_2008":"KC05_KB18","weekday_2010":"KC05_KB18","weekday_2012":"KC05_KB18","weekday_2014":"KC05_KB18","weekday_2016":"KC05_KB18","weekday_2018":"KC05_KB18","weekday_2020":"KC05_KB18","weekday_2024":"KC05_KB18","weekday_2028":"KC05_KB18","weekday_2032":"KC05_KB18","weekday_2036":"KC05_KB18","weekday_2040":"KC05_KB18","weekday_2046":"KC05_KB18","weekday_2048":"KC05_KB18","weekday_2050":"KC05_KB18","weekday_2054":"KC05_KB18","weekday_2058":"KC05_KB18","weekday_2062":"KC05_KB18","weekday_2066":"KC05_KB18","weekday_2070":"KC05_KB18","weekend_2303":"KA15_KD19","weekend_2307":"KA15_KD19","weekend_2311":"KA15_KD19","weekend_2315":"KA15_KD19","weekend_2319":"KA15_KD19","weekend_2327":"KA15_KD19","weekend_2331":"KA15_KD19","weekend_2335":"KA15_KD19","weekend_2339":"KA15_KD19","weekend_2343":"KA15_KD19","weekend_2347":"KA15_KD19","weekend_2351":"KA15_KD19","weekend_2355":"KA15_KD19","weekend_2359":"KA15_KD19","weekend_2363":"KA15_KD19","weekend_2367":"KA15_KD19","weekend_2371":"KA15_KD19","weekend_2375":"KA15_KD19","weekend_2379":"KA15_KD19","weekend_2383":"KA15_KD19","weekend_2302":"KA15_KD19","weekend_2310":"KA15_KD19","weekend_2316":"KA15_KD19","weekend_2318":"KA15_KD19","weekend_2326":"KA15_KD19","weekend_2330":"KA15_KD19","weekend_2334":"KA15_KD19","weekend_2338":"KA15_KD19","weekend_2342":"KA15_KD19","weekend_2346":"KA15_KD19","weekend_2350":"KA15_KD19","weekend_2354":"KA15_KD19","weekend_2358":"KA15_KD19","weekend_2362":"KA15_KD19","weekend_2366":"KA15_KD19","weekend_2370":"KA15_KD19","weekend_2374":"KA15_KD19","weekend_2378":"KA15_KD19","weekend_2382":"KA15_KD19","weekend_2207":"KC05_KB18","weekend_2211":"KC05_KB18","weekend_2213":"KC05_KB18","weekend_2215":"KC05_KB18","weekend_2219":"KC05_KB18","weekend_2223":"KC05_KB18","weekend_2225":"KC05_KB18","weekend_2229":"KC05_KB18","weekend_2233":"KC05_KB18","weekend_2237":"KC05_KB18","weekend_2243":"KC05_KB18","weekend_2247":"KC05_KB18","weekend_2251":"KC05_KB18","weekend_2253":"KC05_KB18","weekend_2257":"KC05_KB18","weekend_2259":"KC05_KB18","weekend_2261":"KC05_KB18","weekend_2265":"KC05_KB18","weekend_2271":"KC05_KB18","weekend_2206":"KC05_KB18","weekend_2208":"KC05_KB18","weekend_2210":"KC05_KB18","weekend_2212":"KC05_KB18","weekend_2214":"KC05_KB18","weekend_2216":"KC05_KB18","weekend_2220":"KC05_KB18","weekend_2224":"KC05_KB18","weekend_2228":"KC05_KB18","weekend_2232":"KC05_KB18","weekend_2236":"KC05_KB18","weekend_2240":"KC05_KB18","weekend_2246":"KC05_KB18","weekend_2248":"KC05_KB18","weekend_2250":"KC05_KB18","weekend_2254":"KC05_KB18","weekend_2258":"KC05_KB18","weekend_2262":"KC05_KB18","weekend_2266":"KC05_KB18","weekend_2270":"KC05_KB18"}}}