{"datasetId":"transit-network-rapid-bus-kl","version":"2026-07-17","updatedAt":"2026-07-17T05:28:26.672Z","publishedAt":"2026-07-17T05:28:26.672Z","rowCount":4193,"source":{"provider":"Agensi Pengangkutan Awam Darat (APAD) / data.gov.my","portal":"data.gov.my","url":"https://developer.data.gov.my/realtime-api/gtfs-static","licence":"CC BY 4.0","licenceUrl":"https://creativecommons.org/licenses/by/4.0/"},"data":{"network":"rapid-bus-kl","mode":"bus","label":"Rapid Bus KL","routes":[{"id":"B1000","shortName":"SUNWAY LINE","longName":"BRT USJ 7 - BRT Setia Jaya","color":"#21618c","category":null},{"id":"U3000","shortName":"300","longName":"Terminal Maluri ~ Lebuh Ampang","color":"#006cff","category":null},{"id":"U3030","shortName":"303","longName":"Taman Mulia Jaya ~ Lebuh Ampang","color":"#006cff","category":null},{"id":"U4000","shortName":"400","longName":"Damai Perdana ~ Hab Lebuh Pudu via Bukit Bintang","color":"#006cff","category":null},{"id":"U4200","shortName":"420","longName":"Hentian Taman Dagang ~ Menara Maybank via Bukit Bintang","color":"#006cff","category":null},{"id":"U4210","shortName":"421","longName":"Hentian Taman Dagang ~ Menara Maybank via Bukit Bintang","color":"#006cff","category":null},{"id":"U4500","shortName":"450","longName":"Hentian Kajang ~ Hab Lebuh Pudu","color":"#006cff","category":null},{"id":"U5800","shortName":"580","longName":"Desa Petaling ~ Pasar Seni via Stesen LRT Salak Selatan","color":"#006cff","category":null},{"id":"U5810","shortName":"581","longName":"Desa Tasik ~ Stesen LRT Bandar Tasik Selatan","color":"#006cff","category":null},{"id":"U5900","shortName":"590","longName":"Bandar Sungai Long ~ Hab Pasar Seni","color":"#006cff","category":null},{"id":"U7510","shortName":"751","longName":"Taman Sri Muda ~ Hab Pasar Seni","color":"#006cff","category":null},{"id":"U7520","shortName":"752","longName":"Stesen LRT Putra Height ~ Hentian Bandar Shah Alam","color":"#006cff","category":null},{"id":"U7700","shortName":"770","longName":"Subang Mewah USJ 1 ~ Hab Pasar Seni","color":"#006cff","category":null},{"id":"T3500","shortName":"T350","longName":"Stesen LRT Cempaka ~ Taman Mawar","color":"#008716","category":null},{"id":"T3510","shortName":"T351","longName":"Stesen LRT Cempaka ~ Taman Bukit Permai","color":"#008716","category":null},{"id":"S0030","shortName":"KJ01","longName":"Hentian Kajang ~ Bandar Kajang via Seksyen 7 Bangi","color":"#008716","category":null},{"id":"T3030","shortName":"T303","longName":"Ampang Point ~ Stesen LRT Pandan Indah","color":"#008716","category":null},{"id":"U5410","shortName":"541","longName":"Stesen MRT Taman Equine ~ Stesen LRT BK 5","color":"#006cff","category":null},{"id":"T6010","shortName":"T601","longName":"Puchong Utama ~ Puchong Prima","color":"#008716","category":null},{"id":"T6040","shortName":"T604","longName":"Stesen LRT Perindustrian Puchong ~ Taman Kinrara","color":"#008716","category":null},{"id":"T6050","shortName":"T605","longName":"Stesen LRT Bandar Puteri ~ Taman Wawasan","color":"#008716","category":null},{"id":"S0060","shortName":"BTG1","longName":"Hentian Banting ~ Mitsui Outlet , KLIA 2","color":"#008716","category":null},{"id":"T6000","shortName":"T600","longName":"Stesen LRT IOI Puchong ~ Taman Wawasan","color":"#008716","category":null},{"id":"T6030","shortName":"T603","longName":"Stesen LRT Puchong Prima ~ Taman Mas Sepang","color":"#008716","category":null},{"id":"T7740","shortName":"T774","longName":"Stesen LRT Glenmarie ~ MSU, Stadium Shah Alam","color":"#008716","category":null},{"id":"T7760","shortName":"T776","longName":"Stesen LRT USJ 7 ~ Subang Mewah","color":"#008716","category":null},{"id":"S4020","shortName":"SA02","longName":"Hentian Bandar Seksyen 14 ~ Stesen KTM Batu 3","color":"#008716","category":null},{"id":"U6510","shortName":"651","longName":"Stesen LRT Muhibbah ~Pearl Point","color":"#006cff","category":null},{"id":"U6520","shortName":"652","longName":"Stesen LRT Awan Besar ~Batu 3 Jalan Klang Lama","color":"#006cff","category":null},{"id":"T5800","shortName":"T580","longName":"Stesen LRT Awan Besar ~ TPM via Stesen LRT Bukit Jalil","color":"#008716","category":null},{"id":"T5810","shortName":"T581","longName":"Stesen LRT Alam Sutera ~ PPR Pinggiran Bukit Jalil","color":"#008716","category":null},{"id":"U6000","shortName":"600","longName":"Puchong Utama ~ Hab Pasar Seni","color":"#006cff","category":null},{"id":"U6400","shortName":"640","longName":"Hab Bas Sri Manja ~ Hab Pasar Seni","color":"#006cff","category":null},{"id":"U6500","shortName":"650","longName":"Taman Desa ~ Hab Pasar Seni","color":"#006cff","category":null},{"id":"T6400","shortName":"T640","longName":"Stesen LRT Taman Jaya ~ Taman Sri Sentosa","color":"#008716","category":null},{"id":"U7830","shortName":"783","longName":"Stesen LRT Kelana Jaya ~ Subang Parade","color":"#006cff","category":null},{"id":"T7820","shortName":"T782","longName":"Stesen LRT Lembah Subang ~ Ara Damansara","color":"#008716","category":null},{"id":"T7900","shortName":"T790","longName":"Stesen LRT Paramount ~ Mid Valley","color":"#008716","category":null},{"id":"T7860","shortName":"T786","longName":"Stesen LRT Asia Jaya ~ Stesen MRT Phileo Damansara","color":"#008716","category":null},{"id":"T7870","shortName":"T787","longName":"Stesen LRT Asia Jaya ~ Seksyen 14 & 18","color":"#008716","category":null},{"id":"T7880","shortName":"T788","longName":"Stesen LRT Universiti ~ Mid Valley","color":"#008716","category":null},{"id":"T7890","shortName":"T789","longName":"Stesen LRT Universiti ~ Universiti Malaya via Pantai Hillpark","color":"#008716","category":null},{"id":"T7910","shortName":"T791","longName":"Stesen LRT Kerinchi ~ Pantai Hill Park","color":"#008716","category":null},{"id":"P0010","shortName":"PJ01","longName":"Terminal Taman Medan ~ Stesen LRT Taman Jaya","color":"#008716","category":null},{"id":"P0020","shortName":"PJ02","longName":"Stesen LRT Taman Jaya ~ PPUM via SS2 PJ","color":"#008716","category":null},{"id":"P0030","shortName":"PJ03","longName":"Stesen LRT Taman Bahagia ~ SS6 Kelana Park View","color":"#008716","category":null},{"id":"P0040","shortName":"PJ04","longName":"Stesen LRT Taman Bahagia ~ Kampung Tunku via SS3","color":"#008716","category":null},{"id":"S5010","shortName":"MENARA PRASARANA","longName":"LRT Lembah Subang ~ Menara Prasarana","color":"#21618c","category":null},{"id":"T8500","shortName":"T850","longName":"Stesen LRT Bangsar ~ Stesen MRT Semantan","color":"#008716","category":null},{"id":"S4050","shortName":"SA05","longName":"Stesen Bas Seksyen 13 ~ Bukit Jelutong","color":"#008716","category":null},{"id":"S1030","shortName":"AJ2A","longName":"Sri Nilam ~ Taman Cahaya","color":"#008716","category":null},{"id":"S1040","shortName":"AJ2B","longName":"Sri Nilam ~ AEON Big Ampang","color":"#008716","category":null},{"id":"S1050","shortName":"AJ03","longName":"Stesen LRT Cempaka ~ Bukit Teratai","color":"#008716","category":null},{"id":"S2060","shortName":"BTG2","longName":"Hentian Banting ~ Bandar Baru Banting","color":"#008716","category":null},{"id":"S1060","shortName":"KJ02","longName":"Stesen KTM Bangi ~ Bandar Bukit Mahkota","color":"#008716","category":null},{"id":"S1070","shortName":"KJ03","longName":"Stesen MRT BTHO ~ Taman Tun Perak","color":"#008716","category":null},{"id":"U7720","shortName":"772","longName":"Subang Suria Mah Sing ~ Hab Pasar Seni","color":"#006cff","category":null},{"id":"U7800","shortName":"780","longName":"Kota Damansara ~ Hab Pasar Seni","color":"#006cff","category":null},{"id":"U2000","shortName":"200","longName":"UIA Gombak ~ SOGO KL","color":"#006cff","category":null},{"id":"U2200","shortName":"220","longName":"Taman Melawati ~ Lebuh Ampang","color":"#006cff","category":null},{"id":"U2220","shortName":"222","longName":"Taman Melawati ~ Stesen LRT Wangsa Maju","color":"#006cff","category":null},{"id":"U2500","shortName":"250","longName":"Stesen LRT Wangsa Maju ~ Lebuh Ampang","color":"#006cff","category":null},{"id":"U2510","shortName":"251","longName":"AU3 Jentayu ~ Chow Kit","color":"#006cff","category":null},{"id":"T2000","shortName":"T200","longName":"Stesen LRT Gombak ~ UIA Gombak","color":"#008716","category":null},{"id":"T2010","shortName":"T201","longName":"Stesen LRT Gombak ~ Hab Wira Damai","color":"#008716","category":null},{"id":"T2020","shortName":"T202","longName":"Stesen LRT Taman Melati ~ Taman Melewar","color":"#008716","category":null},{"id":"T2220","shortName":"T222","longName":"Stesen LRT Sri Rampai ~ UKAY Perdana","color":"#008716","category":null},{"id":"T2500","shortName":"T250","longName":"Stesen LRT Wangsa Maju ~ Setapak Sentral","color":"#008716","category":null},{"id":"T2510","shortName":"T251","longName":"Stesen LRT Sri Rampai ~ Seksyen 10 Wangsa Maju","color":"#008716","category":null},{"id":"T2230","shortName":"T223","longName":"Stesen LRT Setiawangsa ~ AU3, Jentayu, Keramat","color":"#008716","category":null},{"id":"T2240","shortName":"T224","longName":"Stesen LRT Dato Keramat ~ Desa Pandan","color":"#008716","category":null},{"id":"U1710","shortName":"171","longName":"Hab Wira Damai ~ Lebuh Ampang via Sentul","color":"#006cff","category":null},{"id":"U1730","shortName":"173","longName":"Taman Jasa Utama ~ Lebuh Ampang","color":"#006cff","category":null},{"id":"U1800","shortName":"180","longName":"Taman Dato' Senu ~ Hab Pasar Seni","color":"#006cff","category":null},{"id":"U1900","shortName":"190","longName":"Desa Sri Hartamas ~ Lin Ho Jln Lekiu","color":"#006cff","category":null},{"id":"U2020","shortName":"202","longName":"Hub Wira Damai ~ Lebuh Ampang via Gombak","color":"#006cff","category":null},{"id":"U3020","shortName":"302","longName":"Titiwangsa ~ KLCC","color":"#006cff","category":null},{"id":"U8210","shortName":"821","longName":"Pantai Hill Park ~ Hab Pasar Seni","color":"#006cff","category":null},{"id":"U8220","shortName":"822","longName":"Stesen LRT Bangsar ~ Bangsar Shopping Centre","color":"#006cff","category":null},{"id":"P0050","shortName":"PJ05","longName":"Bandar Utama ~ Stesen LRT Taman Bahagia","color":"#008716","category":null},{"id":"P0060","shortName":"PJ06","longName":"Bandar Utama ~ Damansara Damai","color":"#008716","category":null},{"id":"S0070","shortName":"MPS1","longName":"Selayang Mutiara ~ Stesen LRT Gombak","color":"#008716","category":null},{"id":"S1140","shortName":"AJ04","longName":"Pandan Perdana ~ Hospital Ampang","color":"#008716","category":null},{"id":"S1170","shortName":"KJ04","longName":"Hentian Kajang ~ Bandar Baru Bangi","color":"#008716","category":null},{"id":"S4070","shortName":"SA07","longName":"Stesen KTM Batu 3 ~ Seksyen 20 via HICOM","color":"#008716","category":null},{"id":"S4080","shortName":"SA08","longName":"Stesen LRT Alam Megah ~ Kota Kemuning","color":"#008716","category":null},{"id":"S0040","shortName":"AJ01","longName":"Ukay Perdana ~ Taman Melawati via Sg. Sering","color":"#008716","category":null},{"id":"S1190","shortName":"MPS2A","longName":"Lotus Rawang ~ Rawang Perdana","color":"#008716","category":null},{"id":"S6060","shortName":"PAVILION BUKIT JALIL (PAVBJ)","longName":"Stesen LRT Awan Besar ~ Pavilion Bukit Jalil","color":"#006cff","category":null},{"id":"S1390","shortName":"MPS3","longName":"Batu Arang ~ Stesen MRT Sungai Buloh","color":"#008716","category":null},{"id":"S1490","shortName":"MPS4","longName":"Wangsa Permai ~ Bandar Baru Selayang","color":"#008716","category":null},{"id":"P1010","shortName":"P101","longName":"Kompleks F ~ Presint 5","color":"#21618c","category":null},{"id":"P1020","shortName":"P102","longName":"Presint 11 ~ Kompleks E","color":"#21618c","category":null},{"id":"P1030","shortName":"P103","longName":"Presint 14 via Alamanda ~ Kompleks E","color":"#21618c","category":null},{"id":"P1040","shortName":"P104","longName":"Presint 5 ~ Dataran Gemilang ~ Presint 4","color":"#21618c","category":null},{"id":"P1050","shortName":"P105","longName":"Dataran Gemilang ~ Kompleks ABCDE","color":"#21618c","category":null},{"id":"P1060","shortName":"P106","longName":"Presint 4 ~ Kompleks E","color":"#21618c","category":null},{"id":"P1080","shortName":"P108","longName":"Terminal Putrajaya Sentral ~ Kompleks ABCDE","color":"#21618c","category":null},{"id":"U1510","shortName":"151","longName":"Bandar Baru Selayang ~ Hab Lebuh Pudu","color":"#006cff","category":null},{"id":"T8510","shortName":"T851","longName":"KL Sentral ~ Parlimen","color":"#008716","category":null},{"id":"T3008","shortName":"T300","longName":"Bukit Indah ~ Ampang Point via Jalan Rasmi","color":"#008716","category":null},{"id":"T3018","shortName":"T301","longName":"Taman Mulia Jaya ~ Ampang Point via Jalan Merdeka","color":"#008716","category":null},{"id":"T3028","shortName":"T302","longName":"Hutan Lipur Ampang ~ Ampang Point","color":"#008716","category":null},{"id":"T3048","shortName":"T304","longName":"Bukit Indah ~ Ampang Point via Jalan Ampang","color":"#008716","category":null},{"id":"U7548","shortName":"754","longName":"LRT Stadium Shah Alam ~ UITM Puncak Perdana","color":"#006cff","category":null},{"id":"U7538","shortName":"753","longName":"Hentian Bandar Shah Alam ~ UiTM Puncak Alam","color":"#006cff","category":null},{"id":"U7828","shortName":"782","longName":"Hentian PJ Old Town ~ Hab Pasar Seni","color":"#006cff","category":null},{"id":"T7548","shortName":"T754","longName":"Hentian Bandar Shah Alam ~ Terminal Seksyen 17","color":"#008716","category":null},{"id":"T7568","shortName":"T756","longName":"Kemuning Business Park ~ Hentian Bandar via Taman Muda","color":"#008716","category":null},{"id":"U7718","shortName":"771","longName":"Subang Mewah USJ 1 ~ Desa Mentari via Persiaran Tujuan","color":"#006cff","category":null},{"id":"T7158","shortName":"T715","longName":"UiTM Puncak Alam ~ Bandar Puncak Alam","color":"#008716","category":null},{"id":"U7508","shortName":"750","longName":"Hab Sekysen 2 ~ Hab Pasar Seni","color":"#006cff","category":null},{"id":"T4508","shortName":"T450","longName":"Beranang ~ MRT Stadium Kajang","color":"#008716","category":null},{"id":"T4068","shortName":"T406","longName":"Cheras Batu 10 ~ Pangsun","color":"#008716","category":null},{"id":"T5718","shortName":"T571","longName":"Stesen KTM Serdang ~ Taman Sri Pulai","color":"#008716","category":null},{"id":"U6418","shortName":"641","longName":"Stesen LRT Subang Jaya ~ Pearl Point","color":"#006cff","category":null},{"id":"U6028","shortName":"602","longName":"Puchong Prima ~ IOI Puchong","color":"#006cff","category":null},{"id":"T4069","shortName":"T406B","longName":"Cheras Batu 10 ~ Sungai Lui","color":"#008716","category":null},{"id":"S0120","shortName":"HLB2","longName":"LRT Taman Jaya ~ Hong Leong Bank PJCT","color":"#21618c","category":null},{"id":"U2538","shortName":"253","longName":"Stesen LRT Wangsa Maju ~ Ampang Point","color":"#006cff","category":null},{"id":"U2548","shortName":"254","longName":"Ayer Panas ~ Titiwangsa via Chowkit","color":"#006cff","category":null},{"id":"U8518","shortName":"851","longName":"Hab Pasar Seni ~ Kompleks Mahkamah Jalan Duta","color":"#006cff","category":null},{"id":"U2018","shortName":"201","longName":"Batu 12 Gombak – SOGO KL","color":"#006cff","category":null},{"id":"U1708","shortName":"170","longName":"Hab Wira Damai ~ SOGO KL","color":"#006cff","category":null},{"id":"T7790","shortName":"T779","longName":"Stesen LRT Kerjaya~ Subang Hitech","color":"#008716","category":null},{"id":"T7620","shortName":"T762","longName":"Stesen LRT Dato Menteri ~ Bukit Bandaraya","color":"#008716","category":null},{"id":"T7640","shortName":"T764","longName":"Stesen LRT UITM Shah Alam ~ Seksyen 24","color":"#008716","category":null},{"id":"T7650","shortName":"T765","longName":"Stesen LRT Seksyen 7 ~ UITM","color":"#008716","category":null},{"id":"T7290","shortName":"T729","longName":"Stesen LRT Pasar Klang ~ Bandar Bukit Raja","color":"#008716","category":null},{"id":"T7280","shortName":"T728","longName":"Stesen LRT Pasar Klang ~ Setia City Mall","color":"#008716","category":null},{"id":"T7250","shortName":"T725","longName":"Stesen LRT Jambatan Kota ~ Kampung Sungai Udang","color":"#008716","category":null},{"id":"T7220","shortName":"T722","longName":"Stesen LRT Jambatan Kota ~ Kampung Sungai Kandis","color":"#008716","category":null},{"id":"T7210","shortName":"T721","longName":"Stesen LRT Taman Selatan ~ Pandamaran","color":"#008716","category":null},{"id":"T7190","shortName":"T719","longName":"Stesen LRT Klang Jaya ~ Taman Kota Pendamar","color":"#008716","category":null},{"id":"T7800","shortName":"T780","longName":"Stesen LRT BU 11 ~ Stesen LRT Kelana Jaya","color":"#008716","category":null},{"id":"T7810","shortName":"T781","longName":"Stesen LRT Kelana Jaya ~ Stesen LRT Subang","color":"#008716","category":null},{"id":"T7530","shortName":"T753","longName":"Stesen LRT Dato Menteri ~ Seksyen 8 Shah Alam","color":"#008716","category":null}],"stops":[{"id":"1005840","name":"Stesen BRT Setia Jaya","lat":3.08286,"lon":101.61224,"routeIds":["B1000"]},{"id":"1005839","name":"Stesen BRT Mentari","lat":3.07616,"lon":101.61029,"routeIds":["B1000"]},{"id":"1005838","name":"Stesen BRT Sunway Lagoon","lat":3.07084,"lon":101.61065,"routeIds":["B1000"]},{"id":"1005837","name":"Stesen BRT Sunmed","lat":3.0656,"lon":101.60863,"routeIds":["B1000"]},{"id":"1005836","name":"Stesen BRT Sunu-Monash","lat":3.06542,"lon":101.60121,"routeIds":["B1000"]},{"id":"1005835","name":"Stesen BRT South Quay","lat":3.06158,"lon":101.59683,"routeIds":["B1000"]},{"id":"1005834","name":"Stesen BRT Usj7","lat":3.05525,"lon":101.59197,"routeIds":["B1000"]},{"id":"1001828","name":"Pj445 LRT Taman Jaya","lat":3.10388,"lon":101.64499,"routeIds":["P0010","P0020","T6400"]},{"id":"1006035","name":"Pj84 PJ Walk","lat":3.1002,"lon":101.6453,"routeIds":["P0010","T6400","T7860","T7870","U7508","U7510","U7700","U7800"]},{"id":"1001979","name":"Pj434 Dewan Sivik Mbpj","lat":3.09811,"lon":101.64585,"routeIds":["P0010"]},{"id":"1006036","name":"Pj757 Wisma Iem","lat":3.09899,"lon":101.64696,"routeIds":["P0010"]},{"id":"1006206","name":"Pj451 Wisma Perkeso","lat":3.09479,"lon":101.64674,"routeIds":["P0010"]},{"id":"1003674","name":"Pj452 Kompleks Arena PJ","lat":3.09253,"lon":101.64598,"routeIds":["P0010","U7828"]},{"id":"1002425","name":"Pj453 Perpustakaan Komuniti PJ","lat":3.09081,"lon":101.64605,"routeIds":["P0010","U7828"]},{"id":"1003891","name":"(M) Pj469 Terminal Bas","lat":3.08705,"lon":101.64713,"routeIds":["P0010","T6400","U7828"]},{"id":"1001844","name":"Pj455 Mahkamah Syariah","lat":3.0868,"lon":101.65075,"routeIds":["P0010","T6400","U7828"]},{"id":"1001000","name":"Pj411 Apt Inai Court (Opp)","lat":3.08519,"lon":101.65459,"routeIds":["P0010","T6400"]},{"id":"1000942","name":"Pj737 Flat Taman Peransang","lat":3.08144,"lon":101.64832,"routeIds":["P0010","U6418"]},{"id":"1000528","name":"Pj739 Taman Dato Harun","lat":3.08359,"lon":101.63528,"routeIds":["P0010","U6418"]},{"id":"1003570","name":"Pj741 Desa Mentari Fasa 4 (Utara)","lat":3.08438,"lon":101.62812,"routeIds":["P0010","U6418"]},{"id":"1000840","name":"Pj145 Gerai Pjs 2c","lat":3.08174,"lon":101.62733,"routeIds":["P0010"]},{"id":"1003149","name":"Pj742 PJ South City","lat":3.07999,"lon":101.62732,"routeIds":["P0010"]},{"id":"1002339","name":"Pj147 Pjcc","lat":3.07796,"lon":101.62734,"routeIds":["P0010"]},{"id":"1002272","name":"Pj148 Pjs 4 (Barat)","lat":3.07662,"lon":101.62791,"routeIds":["P0010"]},{"id":"1001765","name":"Pj149 Pjs 4 (Timur)","lat":3.07632,"lon":101.62938,"routeIds":["P0010"]},{"id":"1006037","name":"Pj137 Terminal Taman Medan","lat":3.07554,"lon":101.6331,"routeIds":["P0010"]},{"id":"1002554","name":"Pj138 Pjs 4 (Timur)","lat":3.07604,"lon":101.62957,"routeIds":["P0010"]},{"id":"1003446","name":"Pj139 Pjs 4 (Barat)","lat":3.07634,"lon":101.6279,"routeIds":["P0010"]},{"id":"1002851","name":"Pj140 Pjcc","lat":3.07843,"lon":101.62719,"routeIds":["P0010"]},{"id":"1000839","name":"Pj141 PJ South City","lat":3.08085,"lon":101.62721,"routeIds":["P0010"]},{"id":"1003745","name":"Pj143 Surau Madrasatul Imaniya","lat":3.08329,"lon":101.62718,"routeIds":["P0010"]},{"id":"1003075","name":"Pj730 Flat Desa Mentari","lat":3.08492,"lon":101.62761,"routeIds":["P0010"]},{"id":"1003685","name":"Pj731 KTM Kg Dato Harun (Utara)","lat":3.08421,"lon":101.63358,"routeIds":["P0010","U6418"]},{"id":"1002254","name":"Pj733 Taman Maju Jaya","lat":3.08315,"lon":101.64063,"routeIds":["P0010","U6418"]},{"id":"1000943","name":"Pj734 Taman Petaling Utama","lat":3.08179,"lon":101.64981,"routeIds":["P0010","T6400","U6418"]},{"id":"1000999","name":"Pj412 Apt Inai Court","lat":3.0851,"lon":101.65438,"routeIds":["P0010","T6400"]},{"id":"1004161","name":"Pj413 Uitm PJ (Opp)","lat":3.08695,"lon":101.65227,"routeIds":["P0010","T6400"]},{"id":"1001981","name":"Pj415 Terminal Bas (Opp)","lat":3.0869,"lon":101.64679,"routeIds":["P0010","T6400"]},{"id":"1006205","name":"Pj456 Perpustakaan Komuniti PJ (Opp)","lat":3.09034,"lon":101.64598,"routeIds":["P0010"]},{"id":"1006033","name":"Pj460 Kompleks Arena PJ (Opp)","lat":3.09203,"lon":101.64553,"routeIds":["P0010"]},{"id":"1006034","name":"Pj432 Wisma Perkeso (Opp)","lat":3.09507,"lon":101.6465,"routeIds":["P0010"]},{"id":"1001509","name":"Pj435 Wisma Mcis","lat":3.10104,"lon":101.64125,"routeIds":["P0010","T6400","T7860","T7870","U7508","U7510","U7700","U7800"]},{"id":"1001785","name":"Pj437 LRT Asia Jaya","lat":3.10388,"lon":101.63915,"routeIds":["P0010","P0020","U7508","U7510","U7700","U7720","U7800"]},{"id":"1003320","name":"Pj439 Sk Sri Petaling (Opp)","lat":3.10863,"lon":101.63915,"routeIds":["P0010","P0020","T7860","T7870","U7800"]},{"id":"1000484","name":"Pj278 Digital Mall Seksyen 14","lat":3.11047,"lon":101.63634,"routeIds":["P0010","P0020","T7870","U7800"]},{"id":"1005034","name":"Pj302 Quill 9","lat":3.11422,"lon":101.63262,"routeIds":["P0010","P0020","T7870"]},{"id":"1000944","name":"Pj210 Hotel Lisa De Inn","lat":3.11825,"lon":101.63064,"routeIds":["P0010","P0020","T7860","T7870","T7900"]},{"id":"1003538","name":"Pj211 Flat Seksyen 17 (Selatan)","lat":3.11894,"lon":101.63338,"routeIds":["P0010","P0020","T7860","T7900"]},{"id":"1004190","name":"Pj212 Jaya One Mall (Opp)","lat":3.11894,"lon":101.6355,"routeIds":["P0010","P0020","T7860","T7900"]},{"id":"1002675","name":"Pj237 Pusat Asasi Uia (Selatan)","lat":3.1188,"lon":101.63956,"routeIds":["P0010","P0020","T7860","T7900"]},{"id":"1001955","name":"Pj238 Masjid Kolej Islam","lat":3.11873,"lon":101.64058,"routeIds":["P0010","P0020","T7860","T7900"]},{"id":"1003407","name":"Pj245 Smk Sultan Abd Samad (Timur)","lat":3.11857,"lon":101.645,"routeIds":["P0010","P0020","T7860","T7900"]},{"id":"1001007","name":"Pj247 Mahsa University (Timur)","lat":3.11702,"lon":101.64978,"routeIds":["P0010","P0020","T7860","T7900"]},{"id":"1002619","name":"Pj248 Ppum Main Gate","lat":3.11445,"lon":101.651,"routeIds":["P0010","T7860","T7900"]},{"id":"1002617","name":"Pj249 Ppum (Utara)","lat":3.11329,"lon":101.6514,"routeIds":["P0010","T7900","U7800"]},{"id":"1001729","name":"Pj472 PJ Church","lat":3.10738,"lon":101.65381,"routeIds":["P0010"]},{"id":"1003129","name":"Pj474 Sk La Salle (Selatan)","lat":3.1001,"lon":101.65264,"routeIds":["P0010"]},{"id":"1003339","name":"Pj448 Smk (P) Assunta (Opp)","lat":3.0988,"lon":101.65039,"routeIds":["P0010"]},{"id":"1000165","name":"Pj133 Sheraton PJ","lat":3.10321,"lon":101.64006,"routeIds":["P0010"]},{"id":"1002556","name":"Pj749 Wisma Mcis","lat":3.10103,"lon":101.64224,"routeIds":["P0020"]},{"id":"1002012","name":"Pj716 Menara Amfirst","lat":3.11812,"lon":101.62917,"routeIds":["P0020","T7900"]},{"id":"1000836","name":"Pj312 Medan Selera Seksyen 19","lat":3.11885,"lon":101.6287,"routeIds":["P0020","T7900"]},{"id":"1000980","name":"Pj313 Komersial Seksyen 19","lat":3.11828,"lon":101.62627,"routeIds":["P0020","T7900"]},{"id":"1006038","name":"Pj771 Komersial Ss2 (Public Bank)","lat":3.12071,"lon":101.62179,"routeIds":["P0020","P0040","T7900"]},{"id":"1001276","name":"Pj347 Komersial Ss2 (Poh Kong)","lat":3.11725,"lon":101.62089,"routeIds":["P0020","P0040","P0050","T7900","U7800"]},{"id":"1900004","name":"Ss2","lat":3.11622,"lon":101.62224,"routeIds":["P0020"]},{"id":"1000204","name":"Pj712 Balai Polis Seapark","lat":3.11704,"lon":101.62311,"routeIds":["P0020","P0040","T7900"]},{"id":"1002865","name":"Pj349 Medan Selera Seksyen 19","lat":3.11902,"lon":101.62869,"routeIds":["P0020","T7900"]},{"id":"1004179","name":"Pj251 University Tower","lat":3.1135,"lon":101.65042,"routeIds":["P0020","T7860","U7800"]},{"id":"1003630","name":"Pj252 Sk Sultan Alam Shah 2","lat":3.11227,"lon":101.64718,"routeIds":["P0020","T7860","U7800"]},{"id":"1002142","name":"Pj253 Gerak Budaya","lat":3.11171,"lon":101.6464,"routeIds":["P0020","T7860","U7800"]},{"id":"1004272","name":"Pj443 Yayasan Cancerlink","lat":3.10847,"lon":101.64584,"routeIds":["P0020","T7860","T7870","U7508","U7510","U7700","U7720","U7800"]},{"id":"1001830","name":"Pj343 LRT Taman Bahagia","lat":3.11074,"lon":101.61302,"routeIds":["P0030","P0040","P0050"]},{"id":"1002952","name":"Pj186 Rumah No 57","lat":3.10785,"lon":101.61128,"routeIds":["P0030","P0040"]},{"id":"1006208","name":"Petronas/Shell (Opp)","lat":3.10816,"lon":101.60637,"routeIds":["P0030"]},{"id":"1006209","name":"Rumah No 28","lat":3.10945,"lon":101.60324,"routeIds":["P0030"]},{"id":"1006210","name":"Kuarters Pdrm","lat":3.10943,"lon":101.60006,"routeIds":["P0030"]},{"id":"1003347","name":"Pj633 Smk Kelana Jaya","lat":3.10905,"lon":101.59607,"routeIds":["P0030","U7830"]},{"id":"1001381","name":"Pj331 Highpark Suites","lat":3.10175,"lon":101.60002,"routeIds":["P0030"]},{"id":"1006211","name":"Pj770 Pangsapuri Pkns (Opp)","lat":3.10256,"lon":101.60038,"routeIds":["P0030"]},{"id":"1006212","name":"Dataran Glomac","lat":3.10455,"lon":101.60032,"routeIds":["P0030"]},{"id":"1002198","name":"Pj506 Perumahan Pdrm (Opp)","lat":3.10508,"lon":101.60073,"routeIds":["P0030"]},{"id":"1003137","name":"Pj513 Wisma Rehda","lat":3.10518,"lon":101.60658,"routeIds":["P0030"]},{"id":"1006213","name":"Rumah No 24","lat":3.10305,"lon":101.60674,"routeIds":["P0030"]},{"id":"1000032","name":"7 Eleven","lat":3.10083,"lon":101.60541,"routeIds":["P0030"]},{"id":"1006214","name":"Rumah No 159 (Opp)","lat":3.09932,"lon":101.60424,"routeIds":["P0030"]},{"id":"1006227","name":"Rumah No 52","lat":3.09695,"lon":101.60499,"routeIds":["P0030"]},{"id":"1006216","name":"Rumah No 28","lat":3.09637,"lon":101.60576,"routeIds":["P0030"]},{"id":"1003501","name":"Yayasan Taiwan Buddist (Opp)","lat":3.09611,"lon":101.60702,"routeIds":["P0030"]},{"id":"1001910","name":"Pj183 Perumahan SS 5b","lat":3.10014,"lon":101.60703,"routeIds":["P0030"]},{"id":"1002914","name":"Pj202 Perumahan SS 3","lat":3.10166,"lon":101.60948,"routeIds":["P0030"]},{"id":"1006217","name":"Pj203 Smk Sri Permata","lat":3.10164,"lon":101.61357,"routeIds":["P0030"]},{"id":"1003552","name":"Pj340 Perumahan SS 1","lat":3.10466,"lon":101.61633,"routeIds":["P0030"]},{"id":"1002107","name":"Pj341 Spg SS 1/32","lat":3.10861,"lon":101.61649,"routeIds":["P0030"]},{"id":"1003411","name":"Pj342 Smk Taman Sea (Opp)","lat":3.11005,"lon":101.61619,"routeIds":["P0030","P0040","P0050"]},{"id":"1006218","name":"Pj187 Rumah No 107","lat":3.10477,"lon":101.61284,"routeIds":["P0040"]},{"id":"1001134","name":"Pj192 Smk Sri Permata (Opp)","lat":3.1015,"lon":101.61421,"routeIds":["P0040"]},{"id":"1002341","name":"Pj194 Perumahan SS 3","lat":3.09962,"lon":101.61099,"routeIds":["P0040"]},{"id":"1000031","name":"Pj195 Komersial SS 3","lat":3.09679,"lon":101.61099,"routeIds":["P0040"]},{"id":"1002879","name":"Rumah No 1","lat":3.09152,"lon":101.61118,"routeIds":["P0040"]},{"id":"1002192","name":"Pj559 PJ Eco Recycle Plaza","lat":3.08857,"lon":101.61409,"routeIds":["P0040"]},{"id":"1002167","name":"Pj116 Pusat Komersial Pj21","lat":3.09017,"lon":101.61483,"routeIds":["P0040"]},{"id":"1002969","name":"Pj334 Rumah No 9","lat":3.09324,"lon":101.61655,"routeIds":["P0040"]},{"id":"1002933","name":"Pj335 Rumah No 35","lat":3.09527,"lon":101.61735,"routeIds":["P0040"]},{"id":"1003551","name":"Pj111 Spg SS 1/1d","lat":3.09565,"lon":101.61849,"routeIds":["P0040"]},{"id":"1004256","name":"Pj112 Wisma Skppk","lat":3.09225,"lon":101.62068,"routeIds":["P0040"]},{"id":"1002817","name":"Pj699 Pbmm Sjkc Sg Way (Opp)","lat":3.09024,"lon":101.62072,"routeIds":["P0040"]},{"id":"1003626","name":"Pj113 Sjkc Sungai Way","lat":3.08811,"lon":101.62078,"routeIds":["P0040"]},{"id":"1000837","name":"Pj326 Seksyen 51a","lat":3.08863,"lon":101.6253,"routeIds":["P0040"]},{"id":"1002331","name":"Pj327 Padang Permainan","lat":3.0937,"lon":101.62791,"routeIds":["P0040"]},{"id":"1003205","name":"(M) Pj318 Shell Seksyen 51a","lat":3.09641,"lon":101.6306,"routeIds":["P0040"]},{"id":"1003403","name":"Pj291 Smk Sri Utama","lat":3.09848,"lon":101.63226,"routeIds":["P0040"]},{"id":"1000813","name":"Pj720 Bangunan O'Connor (Opp)","lat":3.10025,"lon":101.63213,"routeIds":["P0040"]},{"id":"1000897","name":"Pj747 Seksyen 51a (Utara)","lat":3.10137,"lon":101.63067,"routeIds":["P0040"]},{"id":"1003414","name":"Pj296 Smk (P) Sri Aman","lat":3.10331,"lon":101.6292,"routeIds":["P0040"]},{"id":"1006225","name":"Wisma Jafer Zaidi","lat":3.1067,"lon":101.6255,"routeIds":["P0040"]},{"id":"1000820","name":"Galaxy Opticare","lat":3.10876,"lon":101.62376,"routeIds":["P0040"]},{"id":"1003232","name":"Pj308 Shell Seapark","lat":3.10969,"lon":101.62314,"routeIds":["P0040","T7900","U7800"]},{"id":"1006226","name":"Pj309 Herbaline Seapark","lat":3.11149,"lon":101.62172,"routeIds":["P0040","T7900","U7800"]},{"id":"1002049","name":"Pj711 Petron Seapark (Opp)","lat":3.114,"lon":101.62057,"routeIds":["P0040","T7900","U7800"]},{"id":"1000639","name":"Pj718 Petron Seapark","lat":3.11137,"lon":101.61879,"routeIds":["P0040"]},{"id":"1000909","name":"(M) Pj530 Hentian Bandar Utama","lat":3.15136,"lon":101.61338,"routeIds":["P0050","P0060"]},{"id":"1000248","name":"Pj532 One Utama Ldp","lat":3.15043,"lon":101.61652,"routeIds":["P0050","P0060","U7800"]},{"id":"1007490","name":"Pj537 First Avenue","lat":3.14652,"lon":101.61533,"routeIds":["P0050"]},{"id":"1008182","name":"Smk Bandar Utama (Opp)","lat":3.14248,"lon":101.61564,"routeIds":["P0050"]},{"id":"1008183","name":"Pelangi Utama Condominium","lat":3.14162,"lon":101.6154,"routeIds":["P0050"]},{"id":"1008184","name":"Dataran Pelangi Utama","lat":3.13934,"lon":101.61417,"routeIds":["P0050"]},{"id":"1008185","name":"Seterra Condominium","lat":3.13741,"lon":101.61332,"routeIds":["P0050"]},{"id":"1008187","name":"Masjid Al-Mamuriah","lat":3.1354,"lon":101.61252,"routeIds":["P0050"]},{"id":"1000036","name":"(M) Pj726 Jejantas Damansara Utama","lat":3.13239,"lon":101.62161,"routeIds":["P0050","U7800"]},{"id":"1001431","name":"Pj723 Jejantas SS 22","lat":3.13215,"lon":101.62072,"routeIds":["P0050","U7800"]},{"id":"1007130","name":"Pj818 Smk Damansara Jaya (Opp)","lat":3.13008,"lon":101.61681,"routeIds":["P0050"]},{"id":"1007495","name":"Pj508 Atria (Opp)","lat":3.12895,"lon":101.61709,"routeIds":["P0050"]},{"id":"1002486","name":"Pj509 Damansara Jaya (Tengah)","lat":3.12818,"lon":101.62043,"routeIds":["P0050"]},{"id":"1001246","name":"Pj510 Kdu College","lat":3.12693,"lon":101.62246,"routeIds":["P0050"]},{"id":"1001248","name":"Pj627 Kdu Damansara Jaya","lat":3.12766,"lon":101.62332,"routeIds":["P0050","U7800"]},{"id":"1002752","name":"Pj581 Petron Seapark","lat":3.1144,"lon":101.62124,"routeIds":["P0050","T7900","U7800"]},{"id":"1004001","name":"Pj626 Bp Specialist Centre","lat":3.11565,"lon":101.61412,"routeIds":["P0050"]},{"id":"1007496","name":"Pj484 Kdu (Opp)","lat":3.12685,"lon":101.62227,"routeIds":["P0050"]},{"id":"1007128","name":"Pj490 Atria","lat":3.12854,"lon":101.61748,"routeIds":["P0050"]},{"id":"1007129","name":"Smk Damansara Jaya","lat":3.13148,"lon":101.61665,"routeIds":["P0050"]},{"id":"1007494","name":"10 Boulevard","lat":3.13278,"lon":101.6135,"routeIds":["P0050"]},{"id":"1007493","name":"Bhp Kayu Ara","lat":3.133,"lon":101.61127,"routeIds":["P0050"]},{"id":"1007492","name":"Petron Kayu Ara","lat":3.13333,"lon":101.61138,"routeIds":["P0050"]},{"id":"1007323","name":"Pj780 Masjid Kayu Ara (Opp)","lat":3.13542,"lon":101.61239,"routeIds":["P0050"]},{"id":"1008186","name":"Seterra Condominium (Opp)","lat":3.13722,"lon":101.61311,"routeIds":["P0050"]},{"id":"1007095","name":"Pj781 Pangsapuri Pelangi Ara (Opp)","lat":3.13911,"lon":101.61394,"routeIds":["P0050"]},{"id":"1007096","name":"Pj782 Sk Bandar Utama Damansara 2","lat":3.14144,"lon":101.61521,"routeIds":["P0050"]},{"id":"1007097","name":"Pj783 Smk Bandar Utama","lat":3.14277,"lon":101.61557,"routeIds":["P0050"]},{"id":"1007491","name":"Pj536 First Avenue (Opp)","lat":3.14643,"lon":101.61509,"routeIds":["P0050"]},{"id":"1000990","name":"Pj533 Ikea (Barat)","lat":3.15491,"lon":101.61055,"routeIds":["P0060","U7800"]},{"id":"1007098","name":"Pj814 MRT Mutiara Damansara Pintu C","lat":3.15649,"lon":101.60789,"routeIds":["P0060"]},{"id":"1007471","name":"Pj371 The Curve (Opp)","lat":3.15795,"lon":101.60872,"routeIds":["P0060"]},{"id":"1007473","name":"Pj372 Lotus Mutiara Damansara (Opp)","lat":3.15969,"lon":101.61188,"routeIds":["P0060"]},{"id":"1007474","name":"Pj373 Ritze Perdana","lat":3.16451,"lon":101.61107,"routeIds":["P0060"]},{"id":"1002810","name":"Pj375 Perdana Shopping Centre","lat":3.16759,"lon":101.60637,"routeIds":["P0060"]},{"id":"1007475","name":"Pj817 Perdana Exclusive Condo","lat":3.1694,"lon":101.60536,"routeIds":["P0060"]},{"id":"1002036","name":"Pj377 Metropolitan Square","lat":3.16606,"lon":101.60798,"routeIds":["P0060"]},{"id":"1003243","name":"Pj644 Sophea Residence","lat":3.18998,"lon":101.61761,"routeIds":["P0060"]},{"id":"1007480","name":"Pj21 Bandar Sri Damansara 8","lat":3.18922,"lon":101.61623,"routeIds":["P0060"]},{"id":"1002796","name":"Komersial Sri Damansara","lat":3.18721,"lon":101.61513,"routeIds":["P0060"]},{"id":"1003869","name":"(M) Pj22 Komersial Bandar Sri Damansara 7","lat":3.18537,"lon":101.61344,"routeIds":["P0060"]},{"id":"1007482","name":"Pj23 Sjkc Desa Jaya","lat":3.18539,"lon":101.607,"routeIds":["P0060"]},{"id":"1007484","name":"Pj863 Komersial Bandar Sri Damansara","lat":3.18838,"lon":101.60549,"routeIds":["P0060"]},{"id":"1007486","name":"Pj864 Sd Apartment","lat":3.18978,"lon":101.60538,"routeIds":["P0060"]},{"id":"1007487","name":"Sk Bandar Sri Damansara","lat":3.19121,"lon":101.6057,"routeIds":["P0060"]},{"id":"1001217","name":"Pj31 Medan Selera Sri Damansara","lat":3.19341,"lon":101.60712,"routeIds":["P0060"]},{"id":"1007105","name":"Pj784 Sphere Damansara","lat":3.19824,"lon":101.59916,"routeIds":["P0060"]},{"id":"1008657","name":"Pj850 The Zizz","lat":3.19823,"lon":101.59646,"routeIds":["P0060"]},{"id":"1002782","name":"Pj49 Apartment Lestari","lat":3.19734,"lon":101.59435,"routeIds":["P0060"]},{"id":"1002590","name":"Pj52 Apartment Idaman","lat":3.19069,"lon":101.59237,"routeIds":["P0060"]},{"id":"1000127","name":"Pj53 Apartment Impian","lat":3.19198,"lon":101.58846,"routeIds":["P0060"]},{"id":"1000135","name":"Pj54 Apartment Permai","lat":3.19426,"lon":101.58824,"routeIds":["P0060"]},{"id":"1007488","name":"Pj55 Residensi Suasana Damai (Opp)","lat":3.19451,"lon":101.59138,"routeIds":["P0060"]},{"id":"1002781","name":"Pj62 Apartment Lestari (Opp)","lat":3.19723,"lon":101.59401,"routeIds":["P0060"]},{"id":"1001218","name":"Pj32 Medan Selera Sri Damansara (Opp)","lat":3.1936,"lon":101.60748,"routeIds":["P0060"]},{"id":"1008083","name":"Sk Bandar Sri Damansara (Opp)","lat":3.19075,"lon":101.60589,"routeIds":["P0060"]},{"id":"1007485","name":"Maybank Sri Damansara (Opp)","lat":3.18818,"lon":101.60581,"routeIds":["P0060"]},{"id":"1007483","name":"Pj36 Taman Central Spine Sd","lat":3.18526,"lon":101.60766,"routeIds":["P0060"]},{"id":"1003870","name":"Pj37 Bandar Sri Damansara 7","lat":3.18559,"lon":101.6133,"routeIds":["P0060"]},{"id":"1002795","name":"Komersial Sri Damansara (Opp)","lat":3.18754,"lon":101.615,"routeIds":["P0060"]},{"id":"1007481","name":"Pj38 Bandar Sri Damansara 8","lat":3.18922,"lon":101.61593,"routeIds":["P0060"]},{"id":"1003242","name":"Pj643 Sophea Residence (Opp)","lat":3.19026,"lon":101.61732,"routeIds":["P0060"]},{"id":"1007321","name":"Pj380 Neo Damansara","lat":3.16418,"lon":101.61167,"routeIds":["P0060"]},{"id":"1007320","name":"Pj381 Lotus Mutiara Damansara","lat":3.16033,"lon":101.61226,"routeIds":["P0060"]},{"id":"1007472","name":"Pj382 The Curve","lat":3.1579,"lon":101.60933,"routeIds":["P0060"]},{"id":"1007099","name":"Pj809 MRT Mutiara Damansara Pintu B","lat":3.15569,"lon":101.60819,"routeIds":["P0060"]},{"id":"1007489","name":"Pj822 Oasis Bandar Utama","lat":3.15033,"lon":101.61015,"routeIds":["P0060"]},{"id":"1005696","name":"Ppj191 Kompleks Parcel F","lat":2.94476,"lon":101.70841,"routeIds":["P1010","P1030","P1060"]},{"id":"1005702","name":"Sekolah Sultan Alam Shah","lat":2.94694,"lon":101.71052,"routeIds":["P1010"]},{"id":"1005625","name":"Ppj276 Kompleks Parcel E (Utara)","lat":2.94444,"lon":101.70793,"routeIds":["P1010","P1030","P1060"]},{"id":"1005626","name":"Ppj187 Kompleks Parcel E (Barat)","lat":2.94367,"lon":101.70523,"routeIds":["P1010","P1020","P1030","P1050","P1060","P1080"]},{"id":"1005627","name":"Ppj188 Dataran Pahlawan","lat":2.94193,"lon":101.70443,"routeIds":["P1010","P1020","P1030","P1050","P1060","P1080"]},{"id":"1005628","name":"Ppj189 Kompleks Kerajaan Parcel D","lat":2.93914,"lon":101.7018,"routeIds":["P1010","P1020","P1030","P1050","P1060","P1080"]},{"id":"1005652","name":"Ppj49 Kementerian Kewangan","lat":2.92755,"lon":101.68871,"routeIds":["P1010","P1050"]},{"id":"1005653","name":"Ppj50 Perbendaharaan 2 (Selatan)","lat":2.92533,"lon":101.68796,"routeIds":["P1010","P1050"]},{"id":"1005654","name":"Ppj51 Lembaga Pembiayaan Perumahan (Selatan)","lat":2.92322,"lon":101.68724,"routeIds":["P1010","P1050"]},{"id":"1005655","name":"Ppj52 Menara Usahawan","lat":2.92086,"lon":101.68642,"routeIds":["P1010","P1050"]},{"id":"1005656","name":"Ppj53 Istana Kehakiman (Utara)","lat":2.91838,"lon":101.6856,"routeIds":["P1010","P1050"]},{"id":"1005657","name":"Ppj54 Istana Kehakiman (Selatan)","lat":2.91647,"lon":101.68497,"routeIds":["P1010","P1050"]},{"id":"1005658","name":"Ppj55 Kementerian Belia & Sukan","lat":2.91414,"lon":101.68424,"routeIds":["P1010","P1050"]},{"id":"1005659","name":"Ppj376 Galeria Pjh","lat":2.91106,"lon":101.6833,"routeIds":["P1010","P1040","P1050"]},{"id":"1005660","name":"Ppj56 Motocross Circuit (Timur)","lat":2.90982,"lon":101.68277,"routeIds":["P1010","P1040","P1050"]},{"id":"1005661","name":"Ppj33 Kementerian Pembangunan Luar Bandar","lat":2.90478,"lon":101.68103,"routeIds":["P1010","P1040","P1050"]},{"id":"1005662","name":"Ppj34 Dataran Gemilang","lat":2.9034,"lon":101.68118,"routeIds":["P1010","P1040","P1050"]},{"id":"1008624","name":"Ppj35 Kementerian Wanita & Masyarakat","lat":2.90248,"lon":101.68017,"routeIds":["P1010","P1040"]},{"id":"1008626","name":"Ppj5 Presint 5 (Barat)","lat":2.89559,"lon":101.67321,"routeIds":["P1010"]},{"id":"1008628","name":"Ppj6 Heriot-Watt University P5 (Opp)","lat":2.89769,"lon":101.67109,"routeIds":["P1010"]},{"id":"1008630","name":"Ppj7 Kementerian Pelancongan","lat":2.89882,"lon":101.66835,"routeIds":["P1010","P1040"]},{"id":"1008632","name":"Ppj8 Apartment 5r1 P5 (Opp)","lat":2.89864,"lon":101.66638,"routeIds":["P1010","P1040"]},{"id":"1008634","name":"Ppj9 Presint 6 (Selatan)","lat":2.89714,"lon":101.66576,"routeIds":["P1010","P1040"]},{"id":"1005700","name":"Ppj11 Kementerian Pengajian Tinggi","lat":2.89587,"lon":101.66775,"routeIds":["P1010","P1040"]},{"id":"1008629","name":"Ppj19 Heriot-Watt University P5","lat":2.89827,"lon":101.67084,"routeIds":["P1010","P1040"]},{"id":"1008627","name":"Ppj327 Presint 5 (Barat)","lat":2.89602,"lon":101.6734,"routeIds":["P1010"]},{"id":"1005663","name":"Ppj37 Dataran Gemilang","lat":2.90399,"lon":101.67953,"routeIds":["P1010","P1040","P1050"]},{"id":"1005664","name":"Ppj38 Kementerian Pembangunan Luar Bandar (Opp)","lat":2.90496,"lon":101.68046,"routeIds":["P1010","P1040","P1050"]},{"id":"1005665","name":"Ppj39 Motocross Circuit","lat":2.90998,"lon":101.68216,"routeIds":["P1010","P1040","P1050"]},{"id":"1005666","name":"Ppj40 Galeria Pjh","lat":2.91205,"lon":101.6827,"routeIds":["P1010","P1040","P1050"]},{"id":"1005667","name":"Ppj41 Kementerian Pertanian","lat":2.9148,"lon":101.68386,"routeIds":["P1010","P1040","P1050","P1060"]},{"id":"1005668","name":"Ppj42 Perbadanan Putrajaya (Selatan)","lat":2.91667,"lon":101.6846,"routeIds":["P1010","P1050"]},{"id":"1005669","name":"Ppj43 Perbadanan Putrajaya (Utara)","lat":2.91848,"lon":101.68519,"routeIds":["P1010","P1050"]},{"id":"1005670","name":"Ppj44 Jabatan Pendaftaran Negara","lat":2.92039,"lon":101.68586,"routeIds":["P1010","P1050"]},{"id":"1005671","name":"Ppj45 Lembaga Pembiayaan Perumahan (Utara)","lat":2.92294,"lon":101.68669,"routeIds":["P1010","P1050"]},{"id":"1005672","name":"Ppj46 Perbendaharaan 2 (Utara)","lat":2.92497,"lon":101.68739,"routeIds":["P1010","P1050"]},{"id":"1005673","name":"Ppj47 Menara Perkeso","lat":2.92725,"lon":101.68818,"routeIds":["P1010","P1050"]},{"id":"1005725","name":"Ppj48 Putra Square","lat":2.9346,"lon":101.6905,"routeIds":["P1010"]},{"id":"1000314","name":"Ppj185 Taman Botani Putrajaya","lat":2.94605,"lon":101.69789,"routeIds":["P1010","P1020","P1030","P1050","P1060","P1080"]},{"id":"1000315","name":"Ppj186 Taman Putra Perdana (Timur)","lat":2.94746,"lon":101.70363,"routeIds":["P1010","P1020","P1030","P1050","P1060","P1080"]},{"id":"1001201","name":"Ppj190 Kompleks B/ Laman Perdana (Timur)","lat":2.93893,"lon":101.69546,"routeIds":["P1010","P1020","P1030","P1050","P1060","P1080"]},{"id":"1005597","name":"Ppj132 Apartment Presint 11b","lat":2.95719,"lon":101.67678,"routeIds":["P1020"]},{"id":"1005693","name":"Ppj266 Perumahan Presint 11 (Zon 6b)","lat":2.95295,"lon":101.67703,"routeIds":["P1020"]},{"id":"1005682","name":"Ppj101 Perumahan Presint 11h","lat":2.95401,"lon":101.67446,"routeIds":["P1020"]},{"id":"1005683","name":"Ppj102 Saujana Aster Condominium","lat":2.95626,"lon":101.6737,"routeIds":["P1020"]},{"id":"1005684","name":"Ppj103 Perumahan P11/1","lat":2.95567,"lon":101.66888,"routeIds":["P1020"]},{"id":"1005685","name":"Ppj104 Pusat Integrasi Genius (Opp)","lat":2.95978,"lon":101.665,"routeIds":["P1020"]},{"id":"1005686","name":"Ppj105 Pangsapuri Putra Damai","lat":2.96204,"lon":101.66492,"routeIds":["P1020"]},{"id":"1005687","name":"Ppj106 Prima Presint 11","lat":2.96466,"lon":101.66798,"routeIds":["P1020"]},{"id":"1005688","name":"Ppj111 Perumahan Presint 11c (Barat)","lat":2.96563,"lon":101.671,"routeIds":["P1020"]},{"id":"1005689","name":"Ppj112 Perumahan Presint 11c (Timur)","lat":2.9678,"lon":101.67598,"routeIds":["P1020"]},{"id":"1005690","name":"Ppj114 Balai Polis Presint 11 (Opp)","lat":2.96466,"lon":101.67958,"routeIds":["P1020"]},{"id":"1008577","name":"Ppj128 Perumahan P11a 1/3","lat":2.95755,"lon":101.68279,"routeIds":["P1020"]},{"id":"1008576","name":"Ppj129 Perumahan P11a 1/1","lat":2.95856,"lon":101.68636,"routeIds":["P1020"]},{"id":"1008592","name":"Ppj74 Perumahan P10/9","lat":2.95193,"lon":101.68677,"routeIds":["P1020"]},{"id":"1008593","name":"Ppj75 Kompleks Seri Perdana","lat":2.94907,"lon":101.68723,"routeIds":["P1020"]},{"id":"1008595","name":"Ppj76 Kompleks Lanai","lat":2.94468,"lon":101.68761,"routeIds":["P1020"]},{"id":"1005592","name":"Ppj69 Kompleks Lanai","lat":2.9448,"lon":101.68737,"routeIds":["P1020"]},{"id":"1005593","name":"Ppj70 Presint 10 (Barat)","lat":2.94823,"lon":101.68751,"routeIds":["P1020"]},{"id":"1005594","name":"Ppj71 Kompleks Seri Perdana (Barat)","lat":2.95256,"lon":101.68679,"routeIds":["P1020"]},{"id":"1005595","name":"Ppj130 Presint 11a5","lat":2.95835,"lon":101.68641,"routeIds":["P1020"]},{"id":"1005596","name":"Ppj131 Presint 11a2","lat":2.95734,"lon":101.68283,"routeIds":["P1020"]},{"id":"1005717","name":"Hentian P14","lat":2.94821,"lon":101.72364,"routeIds":["P1030"]},{"id":"1008543","name":"Ppj206 Sekolah Arab Modin Antarabangsa","lat":2.94938,"lon":101.72572,"routeIds":["P1030"]},{"id":"1008541","name":"Ppj207 Kompleks Nasyrul Quran (Timur)","lat":2.95062,"lon":101.72845,"routeIds":["P1030"]},{"id":"1005716","name":"Ppj208 Gerai Komuniti P14","lat":2.95428,"lon":101.72766,"routeIds":["P1030"]},{"id":"1008539","name":"Ppj209 Apartment P14","lat":2.95384,"lon":101.72456,"routeIds":["P1030"]},{"id":"1008537","name":"Ppj210 Kompleks Maksak","lat":2.9523,"lon":101.72367,"routeIds":["P1030"]},{"id":"1008535","name":"Ppj211 Perumahan P14g","lat":2.95235,"lon":101.72116,"routeIds":["P1030"]},{"id":"1008533","name":"Ppj212 Perumahan P14f 1","lat":2.95361,"lon":101.7188,"routeIds":["P1030"]},{"id":"1008531","name":"Ppj213 Perumahan P14b 2/5","lat":2.95229,"lon":101.71645,"routeIds":["P1030"]},{"id":"1008529","name":"Ppj214 Perumahan P14b 2","lat":2.95,"lon":101.71702,"routeIds":["P1030"]},{"id":"1008527","name":"Ppj 215 Perumahan P14b 1","lat":2.94745,"lon":101.71829,"routeIds":["P1030"]},{"id":"1008546","name":"Ppj374 Ppa P15 12b","lat":2.93948,"lon":101.72177,"routeIds":["P1030"]},{"id":"1008547","name":"Ppj375 Ppa P15 12b","lat":2.94126,"lon":101.72157,"routeIds":["P1030"]},{"id":"1008548","name":"Ppj219 Surau Al-Fatih P15","lat":2.94307,"lon":101.72127,"routeIds":["P1030"]},{"id":"1008549","name":"Ppj203 P15 (Utara)","lat":2.94329,"lon":101.71919,"routeIds":["P1030"]},{"id":"1008239","name":"Ppj235 Alamanda (Utara)","lat":2.94136,"lon":101.71208,"routeIds":["P1030","P1060"]},{"id":"1008525","name":"Ppj274 Shaftsbury Mall","lat":2.93882,"lon":101.71288,"routeIds":["P1030","P1060"]},{"id":"1008526","name":"Ppj192 Perumahan P14a 1/1","lat":2.94739,"lon":101.7181,"routeIds":["P1030"]},{"id":"1008528","name":"Ppj193 Surau Al-Manar P14","lat":2.9495,"lon":101.71721,"routeIds":["P1030"]},{"id":"1008530","name":"Ppj194 Perumahan P14c 2/2","lat":2.95185,"lon":101.71609,"routeIds":["P1030"]},{"id":"1008532","name":"Ppj195 Perumahan P14e 1/2","lat":2.95387,"lon":101.71822,"routeIds":["P1030"]},{"id":"1008534","name":"Ppj196 Perumahan P14e 2/2","lat":2.95236,"lon":101.72165,"routeIds":["P1030"]},{"id":"1008536","name":"Ppj197 Smk Putrajaya P14 (1)","lat":2.95261,"lon":101.72338,"routeIds":["P1030"]},{"id":"1008538","name":"Ppj198 Sk Putrajaya P14 (1)","lat":2.95432,"lon":101.72479,"routeIds":["P1030"]},{"id":"1005715","name":"Ppj199 Gerai Komuniti P14 (Opp)","lat":2.95454,"lon":101.72752,"routeIds":["P1030"]},{"id":"1008540","name":"Ppj200 Kompleks Nasyrul Quran","lat":2.9502,"lon":101.72838,"routeIds":["P1030"]},{"id":"1008542","name":"Ppj201 Sekolah Arab Modin Antarabangsa","lat":2.94893,"lon":101.72564,"routeIds":["P1030"]},{"id":"1008636","name":"Ppj12 Apartment 5r3 P5","lat":2.89622,"lon":101.66422,"routeIds":["P1040"]},{"id":"1005719","name":"Ppj20 Apartment 5r4","lat":2.8892,"lon":101.67554,"routeIds":["P1040"]},{"id":"1008638","name":"Ppj23 Sk Putrajaya P5 (1)","lat":2.889,"lon":101.6784,"routeIds":["P1040"]},{"id":"1008637","name":"Ppj26 Apartment 5r6 P5","lat":2.89067,"lon":101.67964,"routeIds":["P1040"]},{"id":"1008625","name":"Ppj36 Kementerian Wanita & Masyarakat","lat":2.90249,"lon":101.67966,"routeIds":["P1040"]},{"id":"1005749","name":"Ppj352 Kementerian Belia Dan Sukan","lat":2.9133,"lon":101.68681,"routeIds":["P1040","P1060"]},{"id":"1005729","name":"Ppj177 Kementerian Pengangkutan","lat":2.91321,"lon":101.68441,"routeIds":["P1040","P1060"]},{"id":"1005084","name":"Ppj3 Picc (Opp)","lat":2.89285,"lon":101.67915,"routeIds":["P1040"]},{"id":"1005701","name":"Ppj10 Kementerian Pengajian Tinggi (Opp)","lat":2.89562,"lon":101.6677,"routeIds":["P1040"]},{"id":"1008635","name":"Ppj14 Presint 6 (Selatan)","lat":2.89701,"lon":101.66545,"routeIds":["P1040"]},{"id":"1008633","name":"Ppj15 Apartment 5r1 P5","lat":2.89893,"lon":101.66614,"routeIds":["P1040"]},{"id":"1008631","name":"Ppj16 Marina Putrajaya","lat":2.89913,"lon":101.66846,"routeIds":["P1040"]},{"id":"1005694","name":"Ppj58 Perumahan Penjawat Awam P8 8r2 (Barat)","lat":2.92948,"lon":101.67999,"routeIds":["P1050"]},{"id":"1005637","name":"Ppj257 Tamara Residence Presint 8","lat":2.92619,"lon":101.68064,"routeIds":["P1050"]},{"id":"1005639","name":"Ppj61 Apartment Presint 8 Fasa 4c","lat":2.92891,"lon":101.67925,"routeIds":["P1050"]},{"id":"1005640","name":"Ppj62 Sk Putrajaya Presint 8 (2) (Barat)","lat":2.93154,"lon":101.68064,"routeIds":["P1050"]},{"id":"1008606","name":"Ppj63 P8n5 Shell P8","lat":2.93344,"lon":101.67926,"routeIds":["P1050"]},{"id":"1005643","name":"Ppj64 Aura Residence P8 (Barat)","lat":2.93693,"lon":101.68026,"routeIds":["P1050"]},{"id":"1005644","name":"Ppj66 Dewan Serbaguna Presint 8","lat":2.93882,"lon":101.68251,"routeIds":["P1050"]},{"id":"1005645","name":"Ppj67 Kompleks Sekolah Putrajaya Presint 8","lat":2.93834,"lon":101.68515,"routeIds":["P1050"]},{"id":"1005646","name":"Ppj68 Kelab Tasik Putrajaya","lat":2.93959,"lon":101.68656,"routeIds":["P1050"]},{"id":"1008597","name":"Ppj77 Kelab Tasik Putrajaya","lat":2.93875,"lon":101.68652,"routeIds":["P1050"]},{"id":"1008599","name":"Ppj78 P8n8 Smk Putrajaya P8 (Opp)","lat":2.9382,"lon":101.68406,"routeIds":["P1050"]},{"id":"1008601","name":"Ppj79 P8n6 Komersial P8","lat":2.93859,"lon":101.68223,"routeIds":["P1050"]},{"id":"1008603","name":"Ppj80 Aura Residence P8","lat":2.9367,"lon":101.68043,"routeIds":["P1050"]},{"id":"1008605","name":"Ppj81 P8n4 Shell P8","lat":2.93317,"lon":101.67966,"routeIds":["P1050"]},{"id":"1008607","name":"Ppj82 Sk Putrajaya P8 2","lat":2.93165,"lon":101.68089,"routeIds":["P1050"]},{"id":"1008568","name":"Ppj305 Taman Pancarona P18","lat":2.91363,"lon":101.6892,"routeIds":["P1060"]},{"id":"1008566","name":"Ppj319 Perumahan P18k 1/1 (Opp)","lat":2.91402,"lon":101.69216,"routeIds":["P1060"]},{"id":"1005726","name":"Perumahan P18h (Opp)","lat":2.91462,"lon":101.69568,"routeIds":["P1060"]},{"id":"1008564","name":"Ppj320 Apartment P18r4 Blok C","lat":2.91588,"lon":101.69725,"routeIds":["P1060"]},{"id":"1005728","name":"Ppj321 Perumahan P18d","lat":2.91861,"lon":101.69747,"routeIds":["P1060"]},{"id":"1008560","name":"Ppj294 Smk Putrajaya P18 (1) (Opp)","lat":2.92144,"lon":101.69384,"routeIds":["P1060"]},{"id":"1005613","name":"Ppj183 Sk Putrajaya Presint 18 (Opp)","lat":2.92412,"lon":101.6941,"routeIds":["P1060"]},{"id":"1005722","name":"Ppam Selasih","lat":2.92398,"lon":101.70086,"routeIds":["P1060"]},{"id":"1008557","name":"Ppj287 Sk Putrajaya P17 1","lat":2.92346,"lon":101.70475,"routeIds":["P1060"]},{"id":"1005634","name":"Ppj282 Presint 17 (Utara)","lat":2.92633,"lon":101.70683,"routeIds":["P1060"]},{"id":"1005692","name":"Ppj283 Apartment Presint 17 (Rk1)","lat":2.92756,"lon":101.70591,"routeIds":["P1060"]},{"id":"1005617","name":"Ppj184 Kompleks Taman Warisan","lat":2.92704,"lon":101.69968,"routeIds":["P1060"]},{"id":"1005618","name":"Ppj227 Sk Putrajaya Presint 16 (2)","lat":2.92836,"lon":101.70016,"routeIds":["P1060"]},{"id":"1005619","name":"Ppj229 Komersial Presint 16","lat":2.92967,"lon":101.70105,"routeIds":["P1060"]},{"id":"1005620","name":"Ppj230 Presint 16e Residence","lat":2.93262,"lon":101.70355,"routeIds":["P1060"]},{"id":"1005621","name":"Ppj231 Surau Ar-Rahman Presint 16 (Opp)","lat":2.93288,"lon":101.70691,"routeIds":["P1060"]},{"id":"1005622","name":"Ppj232 D'Mutiara Residence","lat":2.93455,"lon":101.70816,"routeIds":["P1060"]},{"id":"1005623","name":"Ppj233 Ppam Saderi","lat":2.93569,"lon":101.70992,"routeIds":["P1060"]},{"id":"1005624","name":"Ppj234 Alamanda (Selatan)","lat":2.94029,"lon":101.71263,"routeIds":["P1060"]},{"id":"1008551","name":"Ppj222 P16n1 Apartment P16 Blok A2","lat":2.93555,"lon":101.71011,"routeIds":["P1060"]},{"id":"1008553","name":"Ppj224 P16n3 Surau Ar-Rahman","lat":2.93263,"lon":101.70704,"routeIds":["P1060"]},{"id":"1008554","name":"Ppj225 P16n5 Perumahan P16f","lat":2.93247,"lon":101.70396,"routeIds":["P1060"]},{"id":"1008556","name":"Ppj226 P16n6 Komersial P16 (Opp)","lat":2.92966,"lon":101.70131,"routeIds":["P1060"]},{"id":"1005629","name":"Ppj236 Kompleks Taman Warisan","lat":2.92713,"lon":101.69992,"routeIds":["P1060"]},{"id":"1008558","name":"Ppj286 Apartment Rk2 P17","lat":2.92329,"lon":101.70491,"routeIds":["P1060"]},{"id":"1005721","name":"Ppam Selasih (Opp)","lat":2.92422,"lon":101.70063,"routeIds":["P1060"]},{"id":"1005630","name":"Ppj349 Sk Putrajaya Presint 18","lat":2.92383,"lon":101.69419,"routeIds":["P1060"]},{"id":"1008559","name":"Ppj297 Smk Putrajaya P18 (1)","lat":2.92177,"lon":101.69381,"routeIds":["P1060"]},{"id":"1008562","name":"Ppj298 Perumahan P18d","lat":2.9198,"lon":101.69698,"routeIds":["P1060"]},{"id":"1008563","name":"Ppj300 Apartment P18r4 (Opp)","lat":2.91601,"lon":101.69755,"routeIds":["P1060"]},{"id":"1005727","name":"Perumahan P18h","lat":2.91437,"lon":101.69577,"routeIds":["P1060"]},{"id":"1008565","name":"Ppj301 Perumahan P18k 1/1","lat":2.91395,"lon":101.69292,"routeIds":["P1060"]},{"id":"1008567","name":"Ppj302 Apartment P18r8","lat":2.9133,"lon":101.69023,"routeIds":["P1060"]},{"id":"1005584","name":"(M) Ppj254 MRT Putrajaya Sentral","lat":2.93214,"lon":101.67176,"routeIds":["P1080"]},{"id":"1005675","name":"Ppj88 Apartment Putra Harmoni (Selatan)","lat":2.93682,"lon":101.67271,"routeIds":["P1080"]},{"id":"1000714","name":"Ppj89 Pangsapuri Putra Harmoni P9","lat":2.93917,"lon":101.67171,"routeIds":["P1080"]},{"id":"1005589","name":"Ppj93 Perumahan Rajawali P9b","lat":2.94235,"lon":101.67283,"routeIds":["P1080"]},{"id":"1005590","name":"Ppj90 Perumahan P9 Fasa 5&6 (Selatan)","lat":2.94429,"lon":101.6758,"routeIds":["P1080"]},{"id":"1005679","name":"Ppj98 Perumahan P9 Fasa 5&6 (Timur)","lat":2.94522,"lon":101.67789,"routeIds":["P1080"]},{"id":"1008516","name":"Ppj136 P9n7 Komersial P9g/7","lat":2.94593,"lon":101.67856,"routeIds":["P1080"]},{"id":"1008518","name":"Ppj137 Ppa P9 Fasa 2 (Opp)","lat":2.94713,"lon":101.68036,"routeIds":["P1080"]},{"id":"1008521","name":"Ppj138 P9n9 Perumahan P9g/1","lat":2.94716,"lon":101.68214,"routeIds":["P1080"]},{"id":"1008523","name":"Ppj140 P9n11 Ppa Fasa 3 P9","lat":2.94479,"lon":101.68153,"routeIds":["P1080"]},{"id":"1005591","name":"Ppj147 Sk Putrajaya P9 (1) (Timur)","lat":2.94296,"lon":101.67948,"routeIds":["P1080"]},{"id":"1008522","name":"Ppj141 P9n12 Ppa Fasa 3 P9 (Opp)","lat":2.94489,"lon":101.6816,"routeIds":["P1080"]},{"id":"1008520","name":"Ppj143 P9n10 Perumahan P9g/1","lat":2.94718,"lon":101.68166,"routeIds":["P1080"]},{"id":"1008519","name":"Ppj144 Ppa P9 Fasa 2","lat":2.94707,"lon":101.68048,"routeIds":["P1080"]},{"id":"1008517","name":"Ppj145 P9n8 Perumahan P9g/5","lat":2.94595,"lon":101.67922,"routeIds":["P1080"]},{"id":"1005601","name":"Ppj146 Perumahan  P9g","lat":2.94478,"lon":101.6781,"routeIds":["P1080"]},{"id":"1005602","name":"Ppj91 Perumahan P9 Fasa 5&6 (Selatan)","lat":2.94408,"lon":101.67565,"routeIds":["P1080"]},{"id":"1005603","name":"Ppj92 Perumahan Tempua P9b","lat":2.94234,"lon":101.673,"routeIds":["P1080"]},{"id":"1005650","name":"Ppj167 Sk Putrajaya Presint 9 (2)","lat":2.93782,"lon":101.67332,"routeIds":["P1080"]},{"id":"1005651","name":"Ppj168 Cenderawasih P9a","lat":2.93472,"lon":101.67287,"routeIds":["P1080"]},{"id":"1003903","name":"Kj461 Hentian Kajang","lat":2.957,"lon":101.79172,"routeIds":["S0030","S1170","U4500"]},{"id":"1002571","name":"Kj462 Plaza Perabot","lat":2.96115,"lon":101.79206,"routeIds":["S0030","S1170","U4500"]},{"id":"1003224","name":"Kj463 Shell","lat":2.9646,"lon":101.79096,"routeIds":["S0030","S1170","U4500"]},{"id":"1006251","name":"Kj451 Sjk (T) West Country","lat":2.96535,"lon":101.7889,"routeIds":["S0030"]},{"id":"1006249","name":"Seng Heng","lat":2.96547,"lon":101.78092,"routeIds":["S0030"]},{"id":"1006247","name":"Taska Bestari Sek 8","lat":2.96878,"lon":101.77287,"routeIds":["S0030"]},{"id":"1006245","name":"99 Speedmart Sek 7 (Opp)","lat":2.97154,"lon":101.77348,"routeIds":["S0030"]},{"id":"1006312","name":"Pintu 3 Sk Sek 7","lat":2.9705,"lon":101.77479,"routeIds":["S0030"]},{"id":"1006313","name":"Jpj Bangi (Opp)","lat":2.96857,"lon":101.77525,"routeIds":["S0030"]},{"id":"1006314","name":"Rumah No 17","lat":2.96817,"lon":101.77742,"routeIds":["S0030"]},{"id":"1006315","name":"Pangsapuri Seri Tanjung (Opp)","lat":2.96878,"lon":101.78044,"routeIds":["S0030"]},{"id":"1006316","name":"Intana Ria (Opp)","lat":2.9701,"lon":101.78063,"routeIds":["S0030"]},{"id":"1006241","name":"Surau Al Islah","lat":2.97285,"lon":101.7797,"routeIds":["S0030"]},{"id":"1006317","name":"99 Speedmart Kjg Mewah","lat":2.9758,"lon":101.78037,"routeIds":["S0030"]},{"id":"1006239","name":"Jing An Memorial Village","lat":2.97743,"lon":101.78072,"routeIds":["S0030"]},{"id":"1006237","name":"Tmn Koperasi Lln (Opp)","lat":2.97969,"lon":101.78066,"routeIds":["S0030"]},{"id":"1006235","name":"Tmn Kajang Indah","lat":2.98546,"lon":101.77921,"routeIds":["S0030"]},{"id":"1006233","name":"Flat Sri Saga (Opp)","lat":2.98842,"lon":101.77801,"routeIds":["S0030"]},{"id":"1006079","name":"Kj172 Winnie Plaza (Opp)","lat":2.99083,"lon":101.78033,"routeIds":["S0030"]},{"id":"1007233","name":"Kj822 MRT Stadium Kajang","lat":2.99401,"lon":101.78641,"routeIds":["S0030","T4508","U4500"]},{"id":"1008068","name":"Smjkc Yu Hua (Opp)","lat":2.99679,"lon":101.79092,"routeIds":["S0030"]},{"id":"1004267","name":"Kj506 Pejabat Air Selangor","lat":2.99246,"lon":101.79304,"routeIds":["S0030","T4508"]},{"id":"1001750","name":"Kj507 Komersial Bandar Kajang","lat":2.99297,"lon":101.79014,"routeIds":["S0030","T4508"]},{"id":"1004231","name":"Kj508 Pekan Kajang","lat":2.99191,"lon":101.78787,"routeIds":["S0030","T4508","U4500"]},{"id":"1006064","name":"Kj644 Winnie Plaza","lat":2.99071,"lon":101.78038,"routeIds":["S0030"]},{"id":"1006232","name":"Flat Sri Saga","lat":2.98849,"lon":101.77812,"routeIds":["S0030"]},{"id":"1006234","name":"Pearl Avenue","lat":2.98528,"lon":101.7794,"routeIds":["S0030"]},{"id":"1006236","name":"Tmn Koperasi Lln","lat":2.97961,"lon":101.78079,"routeIds":["S0030"]},{"id":"1006238","name":"Tmn Sri Kejora","lat":2.97775,"lon":101.7809,"routeIds":["S0030"]},{"id":"1006318","name":"99 Speedmart Kjg Mewah (Opp)","lat":2.97574,"lon":101.78049,"routeIds":["S0030"]},{"id":"1006240","name":"Surau Al Islah (Opp)","lat":2.9728,"lon":101.77989,"routeIds":["S0030"]},{"id":"1006319","name":"Intana Ria","lat":2.97012,"lon":101.78075,"routeIds":["S0030"]},{"id":"1006320","name":"Pangsapuri Seri Tanjung","lat":2.96867,"lon":101.78055,"routeIds":["S0030"]},{"id":"1006321","name":"Rumah No 24","lat":2.96803,"lon":101.77745,"routeIds":["S0030"]},{"id":"1006322","name":"Jpj Bangi","lat":2.96836,"lon":101.77515,"routeIds":["S0030"]},{"id":"1006323","name":"Pintu 3 Sk Sek 7 (Opp)","lat":2.97048,"lon":101.77469,"routeIds":["S0030"]},{"id":"1006244","name":"99 Speedmart Sek 7","lat":2.97145,"lon":101.77312,"routeIds":["S0030"]},{"id":"1006246","name":"Wisma Ck Rahim","lat":2.97011,"lon":101.77279,"routeIds":["S0030"]},{"id":"1006248","name":"Sek 4 Tambahan","lat":2.96573,"lon":101.78104,"routeIds":["S0030"]},{"id":"1006250","name":"Kj450 Reko Sentral","lat":2.96579,"lon":101.78933,"routeIds":["S0030","S1170"]},{"id":"1003225","name":"Kj208 Shell (Opp)","lat":2.96394,"lon":101.79142,"routeIds":["S0030","S1170","U4500"]},{"id":"1002572","name":"Kj209 Plaza Perabot (Opp)","lat":2.96096,"lon":101.79239,"routeIds":["S0030","S1170","U4500"]},{"id":"1003663","name":"Aj356 Sk Taman Melawati","lat":3.22428,"lon":101.74735,"routeIds":["S0040","U2200","U2220"]},{"id":"1007533","name":"Aj457 Bukit Melawati (Timur)","lat":3.2211,"lon":101.74834,"routeIds":["S0040","U2200","U2220"]},{"id":"1000664","name":"Aj374 Taman Melawati A (Utara)","lat":3.21845,"lon":101.74874,"routeIds":["S0040","U2200","U2220"]},{"id":"1003472","name":"Aj458 Smk Taman Melawati","lat":3.21459,"lon":101.75088,"routeIds":["S0040","U2200","U2220"]},{"id":"1003073","name":"Aj377 Sk Taman Melawati 2","lat":3.21218,"lon":101.75219,"routeIds":["S0040","U2200","U2220"]},{"id":"1003885","name":"Aj378 Telekom Melawati","lat":3.21005,"lon":101.75311,"routeIds":["S0040","U2200","U2220"]},{"id":"1000866","name":"(M) Aj379 Giant Ulu Kelang (Opp)","lat":3.20622,"lon":101.75228,"routeIds":["S0040","T2220"]},{"id":"1000182","name":"Aj380 Taska Pasti Ilmi","lat":3.20369,"lon":101.75197,"routeIds":["S0040","T2220"]},{"id":"1006110","name":"Aj294 Taman Lembah Keramat","lat":3.20159,"lon":101.75297,"routeIds":["S0040","T2220"]},{"id":"1001989","name":"Aj383 Medan Selera Au5 (Opp)","lat":3.20122,"lon":101.75626,"routeIds":["S0040","T2220"]},{"id":"1003383","name":"Aj384 Smk Lembah Keramat","lat":3.19864,"lon":101.75951,"routeIds":["S0040","T2220"]},{"id":"1003396","name":"Aj385 Smk Seri Keramat","lat":3.19751,"lon":101.75959,"routeIds":["S0040","T2220"]},{"id":"1000678","name":"Aj386 Flat Al-Ridhuan","lat":3.19553,"lon":101.76478,"routeIds":["S0040","T2220"]},{"id":"1004167","name":"Aj478 Ukay Bistari","lat":3.19713,"lon":101.76771,"routeIds":["S0040","T2220"]},{"id":"1004168","name":"Aj387 Ukay Sering","lat":3.19846,"lon":101.77208,"routeIds":["S0040","T2220"]},{"id":"1000145","name":"Aj388 Apartment Sri Melor","lat":3.20377,"lon":101.77555,"routeIds":["S0040","T2220"]},{"id":"1001988","name":"Aj389 Ukay Perdana 4 Residence","lat":3.20647,"lon":101.7735,"routeIds":["S0040","T2220"]},{"id":"1001987","name":"Aj390 Sri Baiduri Apartment (Utara)","lat":3.20624,"lon":101.77269,"routeIds":["S0040","T2220"]},{"id":"1002172","name":"Aj391 Sri Baiduri Apartment (Selatan)","lat":3.20526,"lon":101.7721,"routeIds":["S0040","T2220"]},{"id":"1000144","name":"Aj392 Apartment Sri Melor (Opp)","lat":3.20381,"lon":101.77567,"routeIds":["S0040","T2220"]},{"id":"1008202","name":"Pusat Komersial Timur","lat":3.20326,"lon":101.7777,"routeIds":["S0040"]},{"id":"1008203","name":"Pusat Komersial Selatan","lat":3.20452,"lon":101.77875,"routeIds":["S0040"]},{"id":"1008204","name":"Condo Spring Ville","lat":3.20666,"lon":101.77989,"routeIds":["S0040"]},{"id":"1000803","name":"Aj395 Pangsapuri Kayangan (Opp)","lat":3.21022,"lon":101.77922,"routeIds":["S0040","T2220"]},{"id":"1006231","name":"Hentian Ukay Perdana","lat":3.21223,"lon":101.77804,"routeIds":["S0040","T2220"]},{"id":"1000802","name":"Aj396 Pangsapuri Kayangan","lat":3.21044,"lon":101.77938,"routeIds":["S0040","T2220"]},{"id":"1002723","name":"Aj397 Pangsapuri Sri Impian","lat":3.20812,"lon":101.78134,"routeIds":["S0040","T2220"]},{"id":"1000029","name":"Aj398 Pusat Komersial Up (Opp)","lat":3.20404,"lon":101.77917,"routeIds":["S0040","T2220"]},{"id":"1004101","name":"Tnb Ukay Perdana (Opp)","lat":3.20182,"lon":101.77857,"routeIds":["S0040"]},{"id":"1006230","name":"Warung Taman Riana (Opp)","lat":3.19789,"lon":101.77715,"routeIds":["S0040"]},{"id":"1006229","name":"Taman Riana","lat":3.19917,"lon":101.77842,"routeIds":["S0040"]},{"id":"1006228","name":"Pangsapuri Indah","lat":3.19684,"lon":101.77995,"routeIds":["S0040"]},{"id":"1006108","name":"Aj399 Ukay Sering","lat":3.19818,"lon":101.7722,"routeIds":["S0040","T2220"]},{"id":"1000677","name":"Aj400 Flat Al-Ridhuan (Opp)","lat":3.19527,"lon":101.76454,"routeIds":["S0040","T2220"]},{"id":"1003382","name":"Aj344 Smk Seri Keramat (Opp)","lat":3.19718,"lon":101.75946,"routeIds":["S0040","T2220"]},{"id":"1000042","name":"Aj345 Smk Lembah Keramat (Opp)","lat":3.19861,"lon":101.75931,"routeIds":["S0040","T2220"]},{"id":"1000575","name":"(M) Aj346 Dewan Serbaguna Au5","lat":3.20111,"lon":101.75689,"routeIds":["S0040","T2220"]},{"id":"1002870","name":"Aj347 Taman Lembah Keramat","lat":3.20143,"lon":101.75288,"routeIds":["S0040","T2220"]},{"id":"1000181","name":"Aj348 Taska Pasti Ilmi (Opp)","lat":3.20408,"lon":101.75184,"routeIds":["S0040","T2220"]},{"id":"1000865","name":"Aj349 Giant Ulu Kelang","lat":3.20687,"lon":101.75225,"routeIds":["S0040","T2220"]},{"id":"1000430","name":"Aj473 Taman Melawati B","lat":3.21078,"lon":101.75265,"routeIds":["S0040","U2200","U2220"]},{"id":"1003410","name":"Aj351 Smk Taman Melawati","lat":3.21485,"lon":101.7504,"routeIds":["S0040","U2200","U2220"]},{"id":"1002231","name":"Aj352 Taman Melawati A (Utara)","lat":3.21793,"lon":101.74863,"routeIds":["S0040","U2220"]},{"id":"1000663","name":"Aj353 Taman Melawati A (Utara)","lat":3.22162,"lon":101.74814,"routeIds":["S0040","U2200","U2220"]},{"id":"1006414","name":"Hentian Banting","lat":2.81198,"lon":101.50345,"routeIds":["S0060","S2060"]},{"id":"1006367","name":"Lg115 Pejabat Pertanian","lat":2.81788,"lon":101.51871,"routeIds":["S0060"]},{"id":"1006369","name":"Lg116 Jkr Kuala Langat","lat":2.81928,"lon":101.52196,"routeIds":["S0060"]},{"id":"1006371","name":"Lg117 Kafa Integrasi","lat":2.82061,"lon":101.52518,"routeIds":["S0060"]},{"id":"1006373","name":"Lg118 Smk Banting (Opp)","lat":2.82226,"lon":101.52916,"routeIds":["S0060"]},{"id":"1006375","name":"Lg119 Aimpoint Plaza (Opp)","lat":2.82406,"lon":101.53338,"routeIds":["S0060"]},{"id":"1006377","name":"Lg120 Smk Sg Manggis","lat":2.8256,"lon":101.53689,"routeIds":["S0060"]},{"id":"1006379","name":"Lg121 Sjkt Manggis","lat":2.82673,"lon":101.54058,"routeIds":["S0060"]},{"id":"1006381","name":"Lg122 Mahkota Industrial Banting","lat":2.83032,"lon":101.54901,"routeIds":["S0060"]},{"id":"1006383","name":"Lg124 Kg Sg Manggis","lat":2.83387,"lon":101.55463,"routeIds":["S0060"]},{"id":"1006385","name":"Lg125 Kg Olak Lempit (Barat)","lat":2.83566,"lon":101.56064,"routeIds":["S0060"]},{"id":"1006387","name":"Lg126 Taman Desa Idaman 2","lat":2.83715,"lon":101.56717,"routeIds":["S0060"]},{"id":"1006388","name":"Lg127 Taman Desa Idaman,Kg Olak Lempit","lat":2.83735,"lon":101.57383,"routeIds":["S0060"]},{"id":"1006390","name":"Lg129 Perumahan Taman Merbah","lat":2.83694,"lon":101.58256,"routeIds":["S0060"]},{"id":"1006392","name":"Lg130 Sra Olak Lempit","lat":2.8366,"lon":101.58681,"routeIds":["S0060"]},{"id":"1006394","name":"Lg131 Kg Olak Lempit (Timur)","lat":2.83557,"lon":101.59505,"routeIds":["S0060"]},{"id":"1006396","name":"Lg132 Kompleks Niaga","lat":2.83516,"lon":101.59798,"routeIds":["S0060"]},{"id":"1006398","name":"Lg133 Taman Nuri Indah","lat":2.83383,"lon":101.60618,"routeIds":["S0060"]},{"id":"1006400","name":"Perusahaan Olak Lempit","lat":2.82685,"lon":101.60987,"routeIds":["S0060"]},{"id":"1006402","name":"Kolej Mara Banting","lat":2.81274,"lon":101.62436,"routeIds":["S0060"]},{"id":"1006404","name":"Lg145 Genting Sanyen (Opp)","lat":2.80283,"lon":101.65323,"routeIds":["S0060"]},{"id":"1002838","name":"Taman Langat Murni","lat":2.79912,"lon":101.65759,"routeIds":["S0060"]},{"id":"1006406","name":"Lg146 Apartment Langat Utama","lat":2.79626,"lon":101.66085,"routeIds":["S0060"]},{"id":"1006408","name":"Mitsui","lat":2.77869,"lon":101.67806,"routeIds":["S0060"]},{"id":"1006409","name":"Klia 2","lat":2.74531,"lon":101.68453,"routeIds":["S0060"]},{"id":"1008290","name":"Kompleks Tabung Haji","lat":2.7884,"lon":101.67879,"routeIds":["S0060"]},{"id":"1006407","name":"Lg147 Apartment Langat Utama","lat":2.79896,"lon":101.65727,"routeIds":["S0060"]},{"id":"1006405","name":"Lg148 Genting Sanyen","lat":2.80263,"lon":101.65307,"routeIds":["S0060"]},{"id":"1006403","name":"Tadom Hill","lat":2.81221,"lon":101.62427,"routeIds":["S0060"]},{"id":"1006399","name":"Lg9 Taman Nuri Indah","lat":2.83361,"lon":101.60538,"routeIds":["S0060"]},{"id":"1006397","name":"Lg10 Kompleks Niaga","lat":2.83498,"lon":101.59823,"routeIds":["S0060"]},{"id":"1006395","name":"Lg11 Kg Olak Lempit (Timur)","lat":2.83552,"lon":101.59445,"routeIds":["S0060"]},{"id":"1006393","name":"Lg12 Sk Olak Lempit","lat":2.83645,"lon":101.58665,"routeIds":["S0060"]},{"id":"1006391","name":"Lg13 Perumahan Taman Merbah","lat":2.83681,"lon":101.58211,"routeIds":["S0060"]},{"id":"1006413","name":"Lg14 Taman Merbah Rimba","lat":2.83693,"lon":101.57939,"routeIds":["S0060"]},{"id":"1006389","name":"Lg15 Taman Desa Idaman,Kg Olak Lempit","lat":2.83719,"lon":101.57403,"routeIds":["S0060"]},{"id":"1006386","name":"Lg17 Kg Olak Lempit (Barat)","lat":2.8355,"lon":101.56066,"routeIds":["S0060"]},{"id":"1006384","name":"Lg18 Kg Sg Manggis","lat":2.83327,"lon":101.55412,"routeIds":["S0060"]},{"id":"1006382","name":"Lg19 Mahkota Industrial (Opp)","lat":2.83166,"lon":101.55154,"routeIds":["S0060"]},{"id":"1006380","name":"Lg21 Kompleks Penghulu Manggis","lat":2.82656,"lon":101.54053,"routeIds":["S0060"]},{"id":"1006378","name":"Lg22 Smk Sg Manggis (Opp)","lat":2.82564,"lon":101.53759,"routeIds":["S0060"]},{"id":"1006376","name":"Lg23 Aimpoint Plaza","lat":2.82387,"lon":101.53335,"routeIds":["S0060"]},{"id":"1006374","name":"Lg25 Smk Banting","lat":2.82166,"lon":101.52825,"routeIds":["S0060"]},{"id":"1006372","name":"Lg26 Smk Telok Datok","lat":2.82004,"lon":101.52466,"routeIds":["S0060"]},{"id":"1006370","name":"Lg27 Taman Sri Telok Datok","lat":2.81894,"lon":101.52184,"routeIds":["S0060"]},{"id":"1006368","name":"Lg28 Pejabat Pertanian (Opp)","lat":2.81763,"lon":101.51876,"routeIds":["S0060"]},{"id":"1006476","name":"Hentian Selayang Mutiara","lat":3.2609,"lon":101.67326,"routeIds":["S0070"]},{"id":"1006481","name":"Kg Selayang Permai","lat":3.25942,"lon":101.667,"routeIds":["S0070"]},{"id":"1006479","name":"Spg Jln Mutiara 6","lat":3.25648,"lon":101.66178,"routeIds":["S0070"]},{"id":"1006477","name":"Selayang Segar 2","lat":3.25505,"lon":101.65926,"routeIds":["S0070"]},{"id":"1007618","name":"Sl286 Stadium Selayang","lat":3.25534,"lon":101.65673,"routeIds":["S0070"]},{"id":"1007614","name":"Sl266 Selayang 18 Residences","lat":3.25531,"lon":101.65468,"routeIds":["S0070","S1490","U1510"]},{"id":"1002068","name":"Sl267 Mps","lat":3.2537,"lon":101.65284,"routeIds":["S0070"]},{"id":"1000118","name":"Sl268 Apt Dahlia Blok B","lat":3.25246,"lon":101.65078,"routeIds":["S0070"]},{"id":"1000116","name":"Sl272 Apt Dahlia Blok A","lat":3.25272,"lon":101.64766,"routeIds":["S0070"]},{"id":"1002653","name":"Sl527 Puncak Templer","lat":3.25683,"lon":101.64768,"routeIds":["S0070"]},{"id":"1001471","name":"Sl528 Ki Park Selayang","lat":3.2593,"lon":101.65166,"routeIds":["S0070"]},{"id":"1001851","name":"Sl278 Majlis Peperiksaan Msia","lat":3.26084,"lon":101.65261,"routeIds":["S0070"]},{"id":"1007621","name":"Pejabat Tanah Daerah Gombak","lat":3.26273,"lon":101.65302,"routeIds":["S0070"]},{"id":"1003378","name":"Sl20 Ipd Gombak (Opp)","lat":3.25018,"lon":101.641,"routeIds":["S0070"]},{"id":"1002452","name":"Sl21 Pangsapuri Merak","lat":3.24642,"lon":101.6422,"routeIds":["S0070"]},{"id":"1001078","name":"Sl22 Taman Bidara (Utara)","lat":3.24325,"lon":101.64357,"routeIds":["S0070"]},{"id":"1007620","name":"Sl515 Surau Firdaus Taman Bidara","lat":3.2419,"lon":101.64414,"routeIds":["S0070"]},{"id":"1004048","name":"Sl91 Taman Selayang Jaya","lat":3.23901,"lon":101.64677,"routeIds":["S0070","S1490"]},{"id":"1001179","name":"Sl510 Taman Selayang Jaya","lat":3.23661,"lon":101.64705,"routeIds":["S0070","S1490"]},{"id":"1003158","name":"Sl511 Selayang Mall (Opp)","lat":3.23637,"lon":101.6446,"routeIds":["S0070"]},{"id":"1000931","name":"Sl24 Hospital Selayang","lat":3.24132,"lon":101.64808,"routeIds":["S0070","S1490"]},{"id":"1000505","name":"Sl25 Ideal Convention Centre","lat":3.24494,"lon":101.65327,"routeIds":["S0070","S1490"]},{"id":"1003159","name":"Sl288 Bulatan Beringin Selayang","lat":3.25088,"lon":101.65797,"routeIds":["S0070","S1490","U1510"]},{"id":"1003826","name":"Sl289 Taman Selayang Segar","lat":3.25178,"lon":101.66,"routeIds":["S0070","U1510"]},{"id":"1003516","name":"Sl290 Taman Selayang Indah","lat":3.24957,"lon":101.66293,"routeIds":["S0070","U1510"]},{"id":"1002097","name":"Sl37 Selayang Baru (Barat)","lat":3.24992,"lon":101.66438,"routeIds":["S0070","U1510"]},{"id":"1002288","name":"Sl536 Selayang Baru (Utara)","lat":3.2509,"lon":101.66646,"routeIds":["S0070","U1510"]},{"id":"1001317","name":"Sl43 Perumahan Selayang Baru","lat":3.25001,"lon":101.6705,"routeIds":["S0070","U1510"]},{"id":"1001336","name":"Sl44 Balai Polis Selayang Baru (Opp)","lat":3.24819,"lon":101.67142,"routeIds":["S0070","U1510"]},{"id":"1001636","name":"Sl83 Kompleks Sri Siantan (Opp)","lat":3.24636,"lon":101.67438,"routeIds":["S0070","U1730"]},{"id":"1001555","name":"Sl482 Smk Taman Selayang (Opp)","lat":3.24333,"lon":101.67406,"routeIds":["S0070","U1730"]},{"id":"1003331","name":"Sl84 Smk Seri Selayang (Opp)","lat":3.2419,"lon":101.6736,"routeIds":["S0070","U1730"]},{"id":"1001166","name":"Sl85 Sk Taman Selayang (Opp)","lat":3.24139,"lon":101.67357,"routeIds":["S0070"]},{"id":"1002592","name":"Sl86 Petronas Dataran Selayang","lat":3.23835,"lon":101.67326,"routeIds":["S0070","U1730"]},{"id":"1001874","name":"Sl87 Masjid Al-Amaniah","lat":3.23608,"lon":101.67394,"routeIds":["S0070"]},{"id":"1001892","name":"Sl88 Kompleks Amaniah","lat":3.2354,"lon":101.67514,"routeIds":["S0070","U1730"]},{"id":"1001444","name":"Sl89 Padang Awam Batu Caves","lat":3.23569,"lon":101.67735,"routeIds":["S0070","U1730"]},{"id":"1004263","name":"Sl485 Plaza Umno Batu Caves","lat":3.23601,"lon":101.67916,"routeIds":["S0070","U1730"]},{"id":"1000479","name":"Sl465 Komersial Sri Gombak","lat":3.23614,"lon":101.69848,"routeIds":["S0070"]},{"id":"1003973","name":"Sl212 Hab Bas Greenwood (Opp)","lat":3.2343,"lon":101.70622,"routeIds":["S0070","T2020","U2020"]},{"id":"1001052","name":"Sl213 Jejantas Spg 3","lat":3.23399,"lon":101.7095,"routeIds":["S0070","T2020","U2020"]},{"id":"1008379","name":"Sl510 Ayuman Suites (Opp)","lat":3.23431,"lon":101.71383,"routeIds":["S0070","U2000","U2018"]},{"id":"1001638","name":"Sl106 Sk Sg Pusu (Opp)","lat":3.23601,"lon":101.7143,"routeIds":["S0070","U2000","U2018"]},{"id":"1003638","name":"Sl107 Sk Gombak Utara (Opp)","lat":3.23876,"lon":101.71401,"routeIds":["S0070","U2000","U2018"]},{"id":"1007512","name":"Sl498 Kg Sg Pusu (Utara)","lat":3.24129,"lon":101.71375,"routeIds":["S0070","U2000","U2018"]},{"id":"1007513","name":"Sl499 Kg Sg Chincin (Selatan)","lat":3.24253,"lon":101.71371,"routeIds":["S0070","U2000","U2018"]},{"id":"1001255","name":"Sl108 Kg Sg Chinchin","lat":3.24507,"lon":101.71512,"routeIds":["S0070","U2000","U2018"]},{"id":"1003801","name":"Sl113 Masjid Sg Chinchin","lat":3.24509,"lon":101.71632,"routeIds":["S0070","U2000","U2018"]},{"id":"1001457","name":"Sl114 Kg Sg Chincin (Timur)","lat":3.24395,"lon":101.72004,"routeIds":["S0070","U2000","U2018"]},{"id":"1003118","name":"Sl146 Sk Integrasi Gombak","lat":3.24512,"lon":101.72283,"routeIds":["S0070","U2000"]},{"id":"1001696","name":"Sl147 Kuarters Institut Pendidikan","lat":3.24513,"lon":101.72458,"routeIds":["S0070","U2000"]},{"id":"1003361","name":"Sl148 International Islamic School","lat":3.24693,"lon":101.72817,"routeIds":["S0070","U2000"]},{"id":"1008656","name":"Pintu Utama Uia","lat":3.24859,"lon":101.73268,"routeIds":["S0070"]},{"id":"1001321","name":"Kl153 Flat Taman Melati A9","lat":3.22689,"lon":101.72524,"routeIds":["S0070","T2000","T2010"]},{"id":"1001801","name":"Sl311 LRT Gombak","lat":3.23109,"lon":101.72429,"routeIds":["S0070","T2000","T2010"]},{"id":"1001322","name":"Kl198 Flat Taman Melati E6","lat":3.22711,"lon":101.72532,"routeIds":["S0070","T2000","T2010","T2020"]},{"id":"1003362","name":"Sl163 Kolej Vokasional Gombak","lat":3.24668,"lon":101.72831,"routeIds":["S0070","U2000"]},{"id":"1001697","name":"Sl164 Kuarters Guru Batu 8","lat":3.24489,"lon":101.72506,"routeIds":["S0070","U2000"]},{"id":"1003117","name":"Sl165 Sbp Integrasi Gombak","lat":3.2442,"lon":101.72203,"routeIds":["S0070","U2000"]},{"id":"1003164","name":"Sl166 Kg Sg Chincin (Timur)","lat":3.24376,"lon":101.7202,"routeIds":["S0070","U2000","U2018"]},{"id":"1002869","name":"Sl167 Masjid Sg Chinchin (Opp)","lat":3.24465,"lon":101.7167,"routeIds":["S0070","U2000","U2018"]},{"id":"1001256","name":"Sl168 Kg Sg Chinchin","lat":3.24468,"lon":101.71489,"routeIds":["S0070","U2000","U2018"]},{"id":"1001456","name":"Sl169 Kg Sg Chinchin (Utara)","lat":3.24296,"lon":101.71396,"routeIds":["S0070","U2000","U2018"]},{"id":"1000265","name":"Sl500 Kg Gombak Utara","lat":3.24149,"lon":101.71403,"routeIds":["S0070","U2000","U2018"]},{"id":"1003639","name":"Sl170 Sk Gombak Utara","lat":3.23942,"lon":101.71426,"routeIds":["S0070","U2000","U2018"]},{"id":"1003654","name":"Sl171 Sk Sg Pusu","lat":3.23733,"lon":101.71445,"routeIds":["S0070","U2000","U2018"]},{"id":"1001949","name":"Sl172 Ayuman Suites","lat":3.23407,"lon":101.7141,"routeIds":["S0070","U2000","U2018"]},{"id":"1001051","name":"Sl214 Jejantas Spg 3","lat":3.23357,"lon":101.70976,"routeIds":["S0070","T2020","U2020"]},{"id":"1003974","name":"Sl215 Hab Bas Greenwood","lat":3.23401,"lon":101.70619,"routeIds":["S0070","T2020","U2020"]},{"id":"1008342","name":"Sl234 Hentian Greenwood","lat":3.2348,"lon":101.70451,"routeIds":["S0070"]},{"id":"1006472","name":"Banjaria Court","lat":3.23586,"lon":101.69883,"routeIds":["S0070"]},{"id":"1006473","name":"Giant Batu Caves","lat":3.23558,"lon":101.69256,"routeIds":["S0070"]},{"id":"1001708","name":"Sl494 Plaza Umno Batu Caves","lat":3.23578,"lon":101.67959,"routeIds":["S0070"]},{"id":"1001445","name":"Sl28 Padang Awam Batu Caves (Opp)","lat":3.23547,"lon":101.67747,"routeIds":["S0070","U1730"]},{"id":"1001728","name":"Sl29 Kompleks Amaniah (Opp)","lat":3.2351,"lon":101.67512,"routeIds":["S0070","U1730"]},{"id":"1002356","name":"Sl30 Komersial Taman Selayang","lat":3.23597,"lon":101.6736,"routeIds":["S0070","U1730"]},{"id":"1007547","name":"Sl483 Dataran Selayang (Opp)","lat":3.23787,"lon":101.67325,"routeIds":["S0070"]},{"id":"1003330","name":"Sl31 Sk Tmn Selayang","lat":3.24148,"lon":101.67332,"routeIds":["S0070","U1730"]},{"id":"1008344","name":"Sl443 Smk Seri Selayang","lat":3.24191,"lon":101.67335,"routeIds":["S0070"]},{"id":"1001167","name":"Sl32 Smk Taman Selayang","lat":3.24367,"lon":101.67388,"routeIds":["S0070"]},{"id":"1001635","name":"Sl33 Kompleks Sri Siantan","lat":3.24627,"lon":101.67408,"routeIds":["S0070","U1730"]},{"id":"1000198","name":"Sl45 Balai Polis Selayang Baru","lat":3.2481,"lon":101.67132,"routeIds":["S0070","U1510"]},{"id":"1002098","name":"Sl46 Perumahan Selayang Baru","lat":3.25121,"lon":101.66968,"routeIds":["S0070","U1510"]},{"id":"1000007","name":"Sl51 Selayang Baru (Utara)","lat":3.25097,"lon":101.66689,"routeIds":["S0070","U1510"]},{"id":"1003138","name":"Sl52 Selayang Baru (Barat)","lat":3.24976,"lon":101.66434,"routeIds":["S0070","U1510"]},{"id":"1007619","name":"Sl291 Taman Selayang Indah","lat":3.24958,"lon":101.66259,"routeIds":["S0070","U1510"]},{"id":"1001067","name":"Sl292 Taman Selayang Segar","lat":3.2515,"lon":101.65982,"routeIds":["S0070","U1510"]},{"id":"1003160","name":"Sl293 Bulatan Beringin","lat":3.25041,"lon":101.65816,"routeIds":["S0070","U1510"]},{"id":"1001842","name":"Sl26 Magna Ville Condominium","lat":3.24391,"lon":101.65287,"routeIds":["S0070","S1490"]},{"id":"1002194","name":"Sl27 Kompleks Selayang Capitol","lat":3.24085,"lon":101.64789,"routeIds":["S0070","S1490"]},{"id":"1003157","name":"Sl100 Selayang Mall","lat":3.2366,"lon":101.64409,"routeIds":["S0070","S1490"]},{"id":"1007613","name":"Sl513 Taman Selayang Jaya","lat":3.23637,"lon":101.6452,"routeIds":["S0070","S1490"]},{"id":"1001178","name":"Sl514 Taman Selayang Jaya (Barat)","lat":3.23662,"lon":101.6469,"routeIds":["S0070","S1490"]},{"id":"1004047","name":"Sl99 Taman Selayang Jaya (Utara)","lat":3.23893,"lon":101.64656,"routeIds":["S0070","S1490"]},{"id":"1003245","name":"Sl516 Shell Taman Bidara","lat":3.2414,"lon":101.64415,"routeIds":["S0070"]},{"id":"1003434","name":"Sl17 Taman Bidara (Utara)","lat":3.24353,"lon":101.64318,"routeIds":["S0070"]},{"id":"1000684","name":"Sl18 Pangsapuri Merak","lat":3.24657,"lon":101.64169,"routeIds":["S0070"]},{"id":"1001012","name":"Sl19 Ipd Gombak","lat":3.25144,"lon":101.64127,"routeIds":["S0070"]},{"id":"1001852","name":"Sl281 Majlis Peperiksaan Msia","lat":3.26081,"lon":101.65285,"routeIds":["S0070"]},{"id":"1001472","name":"Sl525 Ki Park Selayang","lat":3.25916,"lon":101.65191,"routeIds":["S0070"]},{"id":"1002654","name":"Sl526 Puncak Templer","lat":3.25688,"lon":101.64789,"routeIds":["S0070"]},{"id":"1000117","name":"Sl273 Apt Dahlia Blok A","lat":3.25291,"lon":101.64791,"routeIds":["S0070"]},{"id":"1000119","name":"Sl276 Apt Dahlia Blok B","lat":3.25244,"lon":101.6506,"routeIds":["S0070"]},{"id":"1002067","name":"Sl277 Mps","lat":3.25394,"lon":101.6528,"routeIds":["S0070"]},{"id":"1003162","name":"Sl282 Selayang 18 Residences (Opp)","lat":3.25552,"lon":101.65489,"routeIds":["S0070","S1490","U1510"]},{"id":"1000959","name":"Sl283 Dataran Bandar Baru Selayang","lat":3.25569,"lon":101.6571,"routeIds":["S0070","S1490","U1510"]},{"id":"1006475","name":"Selayang Segar 1","lat":3.25508,"lon":101.65896,"routeIds":["S0070"]},{"id":"1006478","name":"Spg Jln Mutiara 5/7","lat":3.25673,"lon":101.66206,"routeIds":["S0070"]},{"id":"1006480","name":"Kg Selayang Mutiara 4","lat":3.25935,"lon":101.66658,"routeIds":["S0070"]},{"id":"1007137","name":"Kl1174 MRT Semantan Pintu B","lat":3.1517,"lon":101.66562,"routeIds":["S0120","T8500"]},{"id":"1009142","name":"Hong Leong Pbd","lat":3.14602,"lon":101.66093,"routeIds":["S0120"]},{"id":"1000966","name":"Aj52 Hub Sri Nilam","lat":3.13985,"lon":101.76931,"routeIds":["S1030","S1040","U3000"]},{"id":"1008403","name":"Perumahan Jln Wawasan 3/2","lat":3.14335,"lon":101.76952,"routeIds":["S1030","S1040","U3000"]},{"id":"1006874","name":"Komersial Bandar Baru Ampang","lat":3.14427,"lon":101.7683,"routeIds":["S1030"]},{"id":"1006875","name":"Ampang Prima","lat":3.14507,"lon":101.76631,"routeIds":["S1030"]},{"id":"1003422","name":"Aj48 Spectrum Mall (Opp)","lat":3.14538,"lon":101.76518,"routeIds":["S1030","T3018"]},{"id":"1006876","name":"Aj103 Dewan Komuniti Ampang","lat":3.14467,"lon":101.76324,"routeIds":["S1030"]},{"id":"1006877","name":"Plaza Ampang Jaya","lat":3.14391,"lon":101.76236,"routeIds":["S1030"]},{"id":"1006878","name":"Mewah Court","lat":3.14243,"lon":101.76162,"routeIds":["S1030"]},{"id":"1006879","name":"Metro Villa (Opp)","lat":3.14088,"lon":101.76072,"routeIds":["S1030"]},{"id":"1006880","name":"Aj198 LRT Cahaya","lat":3.14022,"lon":101.75811,"routeIds":["S1030"]},{"id":"1006881","name":"Spg Jln Cahaya 3","lat":3.14214,"lon":101.75563,"routeIds":["S1030"]},{"id":"1006882","name":"Apartment Taman Nirwana (Opp)","lat":3.144,"lon":101.75537,"routeIds":["S1030"]},{"id":"1001527","name":"Aj440 Galaxy Ampang","lat":3.14658,"lon":101.75663,"routeIds":["S1030","U4210"]},{"id":"1006883","name":"Ipd Ampang Jaya","lat":3.14864,"lon":101.75698,"routeIds":["S1030"]},{"id":"1001783","name":"Aj31 LRT Ampang (Opp)","lat":3.15135,"lon":101.76069,"routeIds":["S1030","T3018","T3028","T3048","U3000","U3030"]},{"id":"1000602","name":"Aj32 Giatmara Ampang Jaya","lat":3.14858,"lon":101.76411,"routeIds":["S1030","T3018","T3028","T3048","U3000","U3030"]},{"id":"1000088","name":"Aj61 Ampang Waterfront (Barat)","lat":3.14736,"lon":101.76667,"routeIds":["S1030","T3028","T3048","U3000","U3030"]},{"id":"1003505","name":"Aj435 Ampang Waterfront (Timur)","lat":3.14646,"lon":101.76849,"routeIds":["S1030","T3028","T3048","U3000"]},{"id":"1006885","name":"Perumahan Jln Wawasan 1/2","lat":3.14367,"lon":101.76979,"routeIds":["S1030","U3000"]},{"id":"1008070","name":"Aj309 Ampang Waterfront 2","lat":3.14417,"lon":101.77147,"routeIds":["S1040"]},{"id":"1008071","name":"Aj62 Ampang Waterfront 2 (Timur)","lat":3.14344,"lon":101.77351,"routeIds":["S1040","U3030"]},{"id":"1003580","name":"Aj310 Taman Sri Ampang","lat":3.14342,"lon":101.7749,"routeIds":["S1040"]},{"id":"1001284","name":"Aj431 Komersial Ampang","lat":3.14342,"lon":101.77851,"routeIds":["S1040","T3028","U3030"]},{"id":"1006886","name":"Aj128 Aeon Big Ampang (Opp)","lat":3.14065,"lon":101.78026,"routeIds":["S1040"]},{"id":"1006887","name":"Renjana Ampang (Opp)","lat":3.13658,"lon":101.78007,"routeIds":["S1040"]},{"id":"1006888","name":"Taman Dagang Jaya","lat":3.13353,"lon":101.77923,"routeIds":["S1040"]},{"id":"1006889","name":"Kg Tasik Permai","lat":3.13053,"lon":101.77877,"routeIds":["S1040"]},{"id":"1008072","name":"Spg Kg Tasik Permai","lat":3.12877,"lon":101.77859,"routeIds":["S1040"]},{"id":"1003577","name":"Spg Taman Sri Bayu","lat":3.12567,"lon":101.77714,"routeIds":["S1040"]},{"id":"1002292","name":"Pasar Tasek Tambahan","lat":3.12274,"lon":101.7748,"routeIds":["S1040"]},{"id":"1004109","name":"Taman Tasik Tambahan","lat":3.1216,"lon":101.77167,"routeIds":["S1040"]},{"id":"1001577","name":"Aj153 Taman Putra Ampang Barat","lat":3.12065,"lon":101.76608,"routeIds":["S1040","T3500","U3000"]},{"id":"1002688","name":"Aj428 Paragon Point (Utara)","lat":3.12068,"lon":101.76294,"routeIds":["S1040","T3500","U3000"]},{"id":"1003220","name":"Aj155 Smk Pandan Mewah","lat":3.12522,"lon":101.76283,"routeIds":["S1040","S1140","T3500","U3000"]},{"id":"1008069","name":"Aj156 Hospital Ampang","lat":3.12755,"lon":101.7629,"routeIds":["S1040","S1140","U3000"]},{"id":"1001647","name":"Aj337 Apartment Pandan Mewah","lat":3.12974,"lon":101.76295,"routeIds":["S1040","S1140","T3500","U3000"]},{"id":"1000682","name":"Aj430 Flat Bayu Murni (Opp)","lat":3.13373,"lon":101.76569,"routeIds":["S1040"]},{"id":"1000080","name":"Aj424 Kg Ampang Campuran","lat":3.13435,"lon":101.7674,"routeIds":["S1040"]},{"id":"1006893","name":"Aj322 Smk Bandar Baru Ampang","lat":3.13737,"lon":101.76909,"routeIds":["S1040","U3000"]},{"id":"1006906","name":"Sk Taman Bukit Teratai","lat":3.11005,"lon":101.76417,"routeIds":["S1050"]},{"id":"1006907","name":"99 Speedmart Bukit Teratai","lat":3.11218,"lon":101.76528,"routeIds":["S1050"]},{"id":"1002909","name":"Taman Bukit Teratai","lat":3.11508,"lon":101.76409,"routeIds":["S1050"]},{"id":"1003148","name":"Aj254 Taman Seraya (Timur)","lat":3.11547,"lon":101.76321,"routeIds":["S1050","T3510"]},{"id":"1000362","name":"Aj255 Taman Seraya (Barat)","lat":3.11494,"lon":101.7616,"routeIds":["S1050","T3510"]},{"id":"1006905","name":"Dewan Komuniti Taman Muda (Opp)","lat":3.11649,"lon":101.7596,"routeIds":["S1050","T3510"]},{"id":"1006903","name":"Pasar Taman Muda (Opp)","lat":3.11915,"lon":101.75935,"routeIds":["S1050","T3510"]},{"id":"1002045","name":"Aj266 Taman Muda (Barat)","lat":3.11965,"lon":101.75811,"routeIds":["S1050","T3510"]},{"id":"1003925","name":"Aj267 The Resident Ampang South","lat":3.11948,"lon":101.75312,"routeIds":["S1050","T3510"]},{"id":"1006901","name":"Aj168 Taman Kencana (Utara)","lat":3.12047,"lon":101.75124,"routeIds":["S1050","S1140","T3510"]},{"id":"1003350","name":"Aj169 Smk Pandan Indah (Opp)","lat":3.12249,"lon":101.75117,"routeIds":["S1050","S1140","T3510","U4200"]},{"id":"1006899","name":"Aj239 Sk Pandan Indah","lat":3.12503,"lon":101.75149,"routeIds":["S1050","S1140"]},{"id":"1006897","name":"Flat Lembah Maju","lat":3.12508,"lon":101.7544,"routeIds":["S1050","S1140"]},{"id":"1002721","name":"Aj240 Flat Lembah Maju","lat":3.12533,"lon":101.75515,"routeIds":["S1050"]},{"id":"1002968","name":"Aj429 Pandan Indah","lat":3.12788,"lon":101.75648,"routeIds":["S1050"]},{"id":"1002238","name":"Aj161 Menara Mpaj","lat":3.129,"lon":101.75384,"routeIds":["S1050","S1140","T3510","U4200"]},{"id":"1006895","name":"Aj228 Midpoint Complex","lat":3.1316,"lon":101.7527,"routeIds":["S1050","S1140"]},{"id":"1006908","name":"Apartment Dahlia (Opp)","lat":3.1339,"lon":101.75145,"routeIds":["S1050"]},{"id":"1006909","name":"Apartment Tulip","lat":3.1364,"lon":101.75294,"routeIds":["S1050"]},{"id":"1001793","name":"Aj219 LRT Cempaka","lat":3.13832,"lon":101.75308,"routeIds":["S1050","T3500","T3510"]},{"id":"1003522","name":"Aj225 Pangsapuri Dahlia","lat":3.13626,"lon":101.75288,"routeIds":["S1050","S1140","U4200"]},{"id":"1000704","name":"Aj226 Pangsapuri Dahlia","lat":3.1342,"lon":101.75151,"routeIds":["S1050","S1140","T3510","U4200"]},{"id":"1006894","name":"Aj227 Midpoint Complex (Opp)","lat":3.13226,"lon":101.75284,"routeIds":["S1050"]},{"id":"1001962","name":"Aj172 Menara Maxisegar","lat":3.12922,"lon":101.75345,"routeIds":["S1050","T3510","U4200"]},{"id":"1002821","name":"Aj173 Rhb Pandan Indah","lat":3.12926,"lon":101.75498,"routeIds":["S1050","T3510","U4200"]},{"id":"1003823","name":"Aj233 Pandan Indah","lat":3.12782,"lon":101.75667,"routeIds":["S1050"]},{"id":"1002722","name":"Aj234 Taman Lembah Maju (Utara)","lat":3.12601,"lon":101.75561,"routeIds":["S1050"]},{"id":"1006896","name":"Aj235 Flat Lembah Maju","lat":3.12523,"lon":101.7553,"routeIds":["S1050"]},{"id":"1006898","name":"Sk Pandan Indah (Opp)","lat":3.12494,"lon":101.75166,"routeIds":["S1050"]},{"id":"1003351","name":"Aj165 Smk Pandan Indah","lat":3.12296,"lon":101.75126,"routeIds":["S1050","T3510","U4200"]},{"id":"1006900","name":"Aj333 Flat Pandan Indah","lat":3.12151,"lon":101.75133,"routeIds":["S1050","T3510"]},{"id":"1003924","name":"Aj229 The Resident Ampang South","lat":3.11972,"lon":101.75202,"routeIds":["S1050","T3510"]},{"id":"1002044","name":"Aj230 Taman Muda (Barat)","lat":3.11986,"lon":101.75669,"routeIds":["S1050","S1140","T3510"]},{"id":"1006902","name":"Pasar Taman Muda","lat":3.11911,"lon":101.75949,"routeIds":["S1050"]},{"id":"1006904","name":"Dewan Taman Muda","lat":3.11656,"lon":101.75972,"routeIds":["S1050"]},{"id":"1001319","name":"Aj427 Taman Seraya (Barat)","lat":3.11499,"lon":101.76129,"routeIds":["S1050"]},{"id":"1003211","name":"Aj334 Taman Seraya (Timur)","lat":3.11558,"lon":101.76299,"routeIds":["S1050"]},{"id":"1003012","name":"Aj250 Taman Bukit Teratai","lat":3.11515,"lon":101.76419,"routeIds":["S1050","T3500"]},{"id":"1006910","name":"99 Speedmart Bukit Teratai (Opp)","lat":3.11197,"lon":101.76563,"routeIds":["S1050"]},{"id":"1003343","name":"Komersial Bukit Mahkota","lat":2.87054,"lon":101.81344,"routeIds":["S1060"]},{"id":"1008190","name":"Bukit Mahkota Clubhouse Seksyen 6","lat":2.87376,"lon":101.80865,"routeIds":["S1060"]},{"id":"1008191","name":"Pintu A Perumahan Bukit Mahkota (Opp)","lat":2.8773,"lon":101.80899,"routeIds":["S1060"]},{"id":"1006960","name":"Apartment Nuri (Opp)","lat":2.88132,"lon":101.80729,"routeIds":["S1060"]},{"id":"1006958","name":"Seksyen 3 Bandar Bukit Mahkota","lat":2.88282,"lon":101.80117,"routeIds":["S1060"]},{"id":"1006956","name":"Banyan Close","lat":2.88334,"lon":101.79419,"routeIds":["S1060"]},{"id":"1006964","name":"Pusat Komersial Bandar Sri Putra","lat":2.88633,"lon":101.79117,"routeIds":["S1060"]},{"id":"1006954","name":"Masjid Bandar Seri Putra","lat":2.88767,"lon":101.78782,"routeIds":["S1060"]},{"id":"1006949","name":"Smk Bandar Seri Putra (Opp)","lat":2.88632,"lon":101.78515,"routeIds":["S1060"]},{"id":"1006947","name":"Pangsapuri Seri Melati (Opp)","lat":2.88767,"lon":101.77906,"routeIds":["S1060"]},{"id":"1006965","name":"Pangsapuri Acacia (Opp)","lat":2.88918,"lon":101.77789,"routeIds":["S1060"]},{"id":"1006945","name":"Sk Bandar Seri Putra (Opp)","lat":2.88908,"lon":101.77592,"routeIds":["S1060"]},{"id":"1006943","name":"Apartment Camellia","lat":2.89354,"lon":101.77305,"routeIds":["S1060"]},{"id":"1006941","name":"Taman Bangi Villa (Opp)","lat":2.89884,"lon":101.77891,"routeIds":["S1060"]},{"id":"1006939","name":"Dewan Bangi","lat":2.90121,"lon":101.78108,"routeIds":["S1060"]},{"id":"1008058","name":"Dewan Pekan Bangi","lat":2.90143,"lon":101.78078,"routeIds":["S1060"]},{"id":"1008059","name":"Sk Bangi","lat":2.90456,"lon":101.78428,"routeIds":["S1060"]},{"id":"1006935","name":"KTM Bangi","lat":2.90316,"lon":101.78535,"routeIds":["S1060"]},{"id":"1006936","name":"Pasar Bangi Lama","lat":2.90065,"lon":101.78289,"routeIds":["S1060"]},{"id":"1006938","name":"Dewan Bangi (Opp)","lat":2.9012,"lon":101.78125,"routeIds":["S1060"]},{"id":"1006940","name":"Taman Bangi Villa","lat":2.89878,"lon":101.77904,"routeIds":["S1060"]},{"id":"1006942","name":"Taman Impian Putra","lat":2.89469,"lon":101.77438,"routeIds":["S1060"]},{"id":"1006944","name":"Sk Bandar Seri Putra","lat":2.88911,"lon":101.77572,"routeIds":["S1060"]},{"id":"1006946","name":"Pangsapuri Acacia","lat":2.88926,"lon":101.77799,"routeIds":["S1060"]},{"id":"1006950","name":"Pusat Perniagaan Sri Putra","lat":2.88719,"lon":101.77964,"routeIds":["S1060"]},{"id":"1006948","name":"Smk Bandar Seri Putra","lat":2.88655,"lon":101.78486,"routeIds":["S1060"]},{"id":"1006953","name":"Masjid Bandar Seri Putra (Opp)","lat":2.88789,"lon":101.78768,"routeIds":["S1060"]},{"id":"1006951","name":"Pusat Komersial Bandar Sri Putra","lat":2.88651,"lon":101.79136,"routeIds":["S1060"]},{"id":"1006955","name":"Banyan Close","lat":2.88346,"lon":101.79475,"routeIds":["S1060"]},{"id":"1006957","name":"Seksyen 3 Bandar Bukit Mahkota","lat":2.88306,"lon":101.80118,"routeIds":["S1060"]},{"id":"1006959","name":"Apartment Nuri","lat":2.88157,"lon":101.80739,"routeIds":["S1060"]},{"id":"1006961","name":"Seksyen 5 Bandar Bukit Mahkota","lat":2.8736,"lon":101.8149,"routeIds":["S1060"]},{"id":"1007176","name":"MRT Btho","lat":3.04907,"lon":101.77443,"routeIds":["S1070"]},{"id":"1003179","name":"Apartment Netizen","lat":3.04963,"lon":101.77201,"routeIds":["S1070"]},{"id":"1002469","name":"Petronas Cheras Perdana (Opp)","lat":3.04786,"lon":101.76873,"routeIds":["S1070"]},{"id":"1002213","name":"Taman Cheras Perdana Fasa 2","lat":3.04626,"lon":101.76798,"routeIds":["S1070"]},{"id":"1006997","name":"Smk Cheras Perdana (Opp)","lat":3.04395,"lon":101.76641,"routeIds":["S1070"]},{"id":"1006998","name":"Taman Cheras Perdana Fasa 3","lat":3.04174,"lon":101.76509,"routeIds":["S1070"]},{"id":"1006755","name":"Taman Cheras Perdana Fasa 7","lat":3.03723,"lon":101.76231,"routeIds":["S1070"]},{"id":"1006754","name":"Kj334 Aeon Cheras Selatan","lat":3.03345,"lon":101.76282,"routeIds":["S1070"]},{"id":"1000184","name":"Pusat Komersial C180","lat":3.03485,"lon":101.76601,"routeIds":["S1070"]},{"id":"1006999","name":"Pangsapuri Suakasih","lat":3.03778,"lon":101.75821,"routeIds":["S1070"]},{"id":"1008000","name":"Perumahan Suadamai","lat":3.04998,"lon":101.75483,"routeIds":["S1070"]},{"id":"1008001","name":"Sk Btho 2","lat":3.0528,"lon":101.755,"routeIds":["S1070"]},{"id":"1008002","name":"Smk Btho 2","lat":3.05408,"lon":101.75579,"routeIds":["S1070"]},{"id":"1008004","name":"Petronas Btho 2","lat":3.05472,"lon":101.75797,"routeIds":["S1070"]},{"id":"1006757","name":"Apartment Minang Ria","lat":3.05647,"lon":101.75744,"routeIds":["S1070"]},{"id":"1008005","name":"Pangsapuri Seri Murni","lat":3.06035,"lon":101.7574,"routeIds":["S1070"]},{"id":"1008006","name":"Sra Taman Tun Perak (Opp)","lat":3.06209,"lon":101.75834,"routeIds":["S1070"]},{"id":"1008007","name":"Pangsapuri Wira","lat":3.0632,"lon":101.75868,"routeIds":["S1070"]},{"id":"1002241","name":"Aj276 Pandan Height","lat":3.11272,"lon":101.73863,"routeIds":["S1140"]},{"id":"1002245","name":"Aj277 Pandan Vista","lat":3.11518,"lon":101.73894,"routeIds":["S1140"]},{"id":"1002242","name":"Aj278 Pandan Perdana Deluxe","lat":3.11638,"lon":101.73961,"routeIds":["S1140"]},{"id":"1002410","name":"Aj470 Perdana Villa","lat":3.11806,"lon":101.74059,"routeIds":["S1140"]},{"id":"1002247","name":"Aj279 Pandan Perdana (Barat)","lat":3.11983,"lon":101.74159,"routeIds":["S1140"]},{"id":"1008085","name":"Plaza Pandan","lat":3.11984,"lon":101.74233,"routeIds":["S1140"]},{"id":"1003125","name":"Aj273 Sk Pandan Perdana","lat":3.11578,"lon":101.74178,"routeIds":["S1140"]},{"id":"1008086","name":"Stadium Mpaj","lat":3.11437,"lon":101.74196,"routeIds":["S1140"]},{"id":"1008087","name":"Aj274 Komersial Pandan Perdana","lat":3.11328,"lon":101.7446,"routeIds":["S1140"]},{"id":"1003057","name":"Aj331 Taman Kencana (Barat)","lat":3.11961,"lon":101.74858,"routeIds":["S1140","U4200"]},{"id":"1003990","name":"Aj332 Taman Kencana (Timur)","lat":3.11964,"lon":101.7503,"routeIds":["S1140","U4200"]},{"id":"1003825","name":"Aj236 Taman Lembah Maju","lat":3.1236,"lon":101.75525,"routeIds":["S1140"]},{"id":"1003326","name":"Aj237 Sk Taman Muda","lat":3.12051,"lon":101.75543,"routeIds":["S1140"]},{"id":"1001177","name":"Aj231 Taman Muda (Timur)","lat":3.11999,"lon":101.75915,"routeIds":["S1140","T3510"]},{"id":"1001755","name":"Aj242 Komersial Taman Muda","lat":3.12137,"lon":101.76008,"routeIds":["S1140","T3510"]},{"id":"1001651","name":"Aj157 Pandan Mewah Heights","lat":3.13092,"lon":101.76214,"routeIds":["S1140","T3510","U4200"]},{"id":"1000992","name":"Aj158 Flat 610","lat":3.13048,"lon":101.76037,"routeIds":["S1140","T3510","U4200"]},{"id":"1003749","name":"Aj159 Surau Madrasatul Sofwa","lat":3.12988,"lon":101.75896,"routeIds":["S1140","T3510","U4200"]},{"id":"1000610","name":"Aj160 Apartment Bunga Raya","lat":3.12925,"lon":101.75727,"routeIds":["S1140","T3510","U4200"]},{"id":"1000728","name":"Aj179 Apartment Merpati","lat":3.13387,"lon":101.75634,"routeIds":["S1140","T3510","U3000","U4200"]},{"id":"1000354","name":"Aj223 Apartment Merpati","lat":3.13415,"lon":101.75753,"routeIds":["S1140","T3500","T3510","U4200"]},{"id":"1000134","name":"Aj423 Apartment Nuri Court","lat":3.1357,"lon":101.7563,"routeIds":["S1140","T3500","T3510","U4200"]},{"id":"1000129","name":"Aj224 Apartment Kenari Court","lat":3.13645,"lon":101.75454,"routeIds":["S1140","T3500","T3510","U4200"]},{"id":"1008088","name":"Komersial Pandan Indah","lat":3.13311,"lon":101.7512,"routeIds":["S1140"]},{"id":"1001334","name":"Aj269 Taman Maju Jaya","lat":3.13045,"lon":101.74298,"routeIds":["S1140"]},{"id":"1002794","name":"Aj270 Cheras Indah Night Market","lat":3.12871,"lon":101.74292,"routeIds":["S1140"]},{"id":"1003776","name":"Aj271 Taman Cheras Indah","lat":3.12439,"lon":101.74246,"routeIds":["S1140"]},{"id":"1000009","name":"Aj272 Pandan Perdana (Timur)","lat":3.12019,"lon":101.74365,"routeIds":["S1140"]},{"id":"1003537","name":"Aj275 Pandan Perdana (Selatan)","lat":3.11425,"lon":101.74106,"routeIds":["S1140"]},{"id":"1009040","name":"Kj884 Komersial Seksyen 4","lat":2.9645,"lon":101.78174,"routeIds":["S1170"]},{"id":"1009042","name":"Kj885 Smk Jalan Empat","lat":2.96183,"lon":101.7817,"routeIds":["S1170"]},{"id":"1009054","name":"Jalan 4/5d","lat":2.96075,"lon":101.77817,"routeIds":["S1170"]},{"id":"1009052","name":"Surau Al-Kauthar","lat":2.95782,"lon":101.77938,"routeIds":["S1170"]},{"id":"1009050","name":"Pangsapuri Anggun (Opp)","lat":2.95556,"lon":101.77984,"routeIds":["S1170"]},{"id":"1009055","name":"Surau Jubli Perak Al-Ikhwan (Opp)","lat":2.95371,"lon":101.7792,"routeIds":["S1170"]},{"id":"1009047","name":"Kj925 Simpang 4/8e","lat":2.95205,"lon":101.77863,"routeIds":["S1170"]},{"id":"1005786","name":"Sk Jalan Empat","lat":2.95102,"lon":101.77916,"routeIds":["S1170"]},{"id":"1005788","name":"Surau Al-Sobah","lat":2.94771,"lon":101.77861,"routeIds":["S1170"]},{"id":"1005790","name":"Sk Jalan Tiga","lat":2.94651,"lon":101.77861,"routeIds":["S1170"]},{"id":"1005792","name":"Smk Jalan Tiga","lat":2.94528,"lon":101.77864,"routeIds":["S1170"]},{"id":"1005794","name":"Perumahan Seksyen 3/2","lat":2.94272,"lon":101.77747,"routeIds":["S1170"]},{"id":"1006196","name":"Kj454 Bandar Baru Bangi Seksyen 3 (Selatan)","lat":2.94214,"lon":101.77595,"routeIds":["S1170"]},{"id":"1008154","name":"Kj513 Bandar Baru Bangi Seksyen 2 (Selatan)","lat":2.93919,"lon":101.76861,"routeIds":["S1170"]},{"id":"1006190","name":"Kj514 Pangsapuri Sri Cempaka","lat":2.94128,"lon":101.76734,"routeIds":["S1170"]},{"id":"1006191","name":"Kj515 Petronas Seksyen 16","lat":2.94443,"lon":101.76529,"routeIds":["S1170"]},{"id":"1006198","name":"Kj525 Kompleks Pentadbiran Hulu Langat","lat":2.95615,"lon":101.75769,"routeIds":["S1170"]},{"id":"1006086","name":"Mahkamah Syariah Bangi","lat":2.95919,"lon":101.75429,"routeIds":["S1170"]},{"id":"1006087","name":"Petronas Seksyen 9 Bangi","lat":2.96132,"lon":101.75156,"routeIds":["S1170"]},{"id":"1006089","name":"Kj429 Komersial Seksyen 8 Bandar Baru Bangi","lat":2.96256,"lon":101.75713,"routeIds":["S1170"]},{"id":"1006090","name":"Seksyen 6 Puncak Bangi","lat":2.96204,"lon":101.76117,"routeIds":["S1170"]},{"id":"1006091","name":"Kj516 Bandar Baru Bangi Seksyen 2 (Utara)","lat":2.9445,"lon":101.76559,"routeIds":["S1170"]},{"id":"1008153","name":"Kj519 Pangsapuri Sri Cempaka","lat":2.9412,"lon":101.76772,"routeIds":["S1170"]},{"id":"1006062","name":"Kj520 Bandar Baru Bangi Seksyen 2 (Selatan)","lat":2.9381,"lon":101.76964,"routeIds":["S1170"]},